[?1049h[1;40r(B[m[4l[?7h[?1h=[H[2J(B[0;1m/dev/ttyO1 9600 8N1[1;31H(B[mUnknown device>
(0[0mlqqqqqqqqqqqqqqqqqqqqqqqqqqqqqqqqqqqqqqqqqqqqqqqqqqqqqqqqqqqqqqqqqqqqqqqqqqqqqqk(B
(0[0mx(B[0;1mTime: [3;33HLat: [3;56HLon: [3;80H(0[0mx(B
(0[0mmqqqqqqqqqqqqqqqqqqqqqqqqqqqqqqqqq(B[0;1m Cooked PVT (0[0mqqqqqqqqqqqqqqqqqqqqqqqqqqqqqqqqqj(B
(0[0mlqqqqqqqqqqqqqqqqqqqqqqqqqqqqqqqqqqqqqqqqqqqqqqqqqqqqqqqqqqqqqqqqqqqqqqqqqqqqqqk(B
(0[0mx(B (B[0;1mGPGSV[6;80H(0[0mx(B
(0[0mmqqqqqqqqqqqqqqqqqqqqqqqqqqqqqqqqq(B[0;1m Sentences (0[0mqqqqqqqqqqqqqqqqqqqqqqqqqqqqqqqqqqj(B
(0[0mlqqqqqqqqqqqqqqqqqqklqqqqqqqqqqqqqqqqqqqqqqqqqqqqklqqqqqqqqqqqqqqqqqqqqqqqqqqqqk(B
(0[0mx(B[0;1mCh PRN  Az El S/N(B[m (0[0mxx(B[0;1mTime: [9;50H(0[0mxx(B[0;1mTime: [9;80H(0[0mx(B
(0[0mx(B[0;1m 0(B[m   8   0  0  25 (0[0mxx(B[0;1mLatitude: [10;50H(0[0mxx(B[0;1mLatitude: [10;80H(0[0mx(B
(0[0mx(B[0;1m 1(B[m   9  16 16  20 (0[0mxx(B[0;1mLongitude: [11;50H(0[0mxx(B[0;1mLongitude: [11;80H(0[0mx(B
(0[0mx(B[0;1m 2(B[m  10 332  4  19 (0[0mxx(B[0;1mSpeed: [12;50H(0[0mxx(B[0;1mAltitude: [12;80H(0[0mx(B
(0[0mx(B[0;1m 3(B[m  11   0  0  24 (0[0mxx(B[0;1mCourse: [13;50H(0[0mxx(B[0;1mQuality:       Sats: [80G(0[0mx(B
(0[0mx(B[0;1m 4[14;20H(0[0mxx(B[0;1mStatus:            FAA: (B[m    (0[0mxx(B[0;1mHDOP: [14;80H(0[0mx(B
(0[0mx(B[0;1m 5[15;20H(0[0mxx(B[0;1mMagVar: [15;50H(0[0mxx(B[0;1mGeoid: [15;80H(0[0mx(B
(0[0mx(B[0;1m 6[16;20H(0[0mxmqqqqqqqqqqq(B[0;1m RMC (0[0mqqqqqqqqqqqqjmqqqqqqqqqqq(B[0;1m GGA (0[0mqqqqqqqqqqqqj(B
(0[0mx(B[0;1m 7[17;20H(0[0mxlqqqqqqqqqqqqqqqqqqqqqqqqqqqqklqqqqqqqqqqqqqqqqqqqqqqqqqqqqk(B
(0[0mx(B[0;1m 8[18;20H(0[0mxx(B[0;1mMode: [18;50H(0[0mxx(B[0;1mUTC: [18;67HRMS: [18;80H(0[0mx(B
(0[0mx(B[0;1m 9[19;20H(0[0mxx(B[0;1mSats: [19;50H(0[0mxx(B[0;1mMAJ: [19;67HMIN: [19;80H(0[0mx(B
(0[0mx(B[0;1m10[20;20H(0[0mxx(B[0;1mDOP: H=      V=      P=(B[m     (0[0mxx(B[0;1mORI: [20;67HLAT: [20;80H(0[0mx(B
(0[0mx(B[0;1m11[21;20H(0[0mxmqqqqqqqqqqq(B[0;1m GSA (0[0mqqqqqqqqqqqqjx(B[0;1mLON: [21;67HALT: [21;80H(0[0mx(B
(0[0mmqqqqqq(B[0;1m GSV (0[0mqqqqqqqj(B[22;51H(0[0mmqqqqqqqqqqq(B[0;1m GST (0[0mqqqqqqqqqqqqj(B
(0[0m(B(60) $GPGSV,5,2,17,08,,,25,09,16,016,20,10,04,332,19,11,,,24*75\x0d\x0a
[1;31HGeneric NMEA>[K[14;6H13 256 61  33
[6G17 344 50  28
[6G19 143  4   0
[6G26 227 33  25[24d(68) $GPGSV,5,3,17,13,61,256,33,17,50,344,28,19,04,143,,26,33,227,25*79\x0d\x0a
[18;6H28 208 58  27
[6G29   0  0  24
[6G30 131 63  33
[6G31   0  0  23



(60) $GPGSV,5,4,17,28,58,208,27,29,,,24,30,63,131,33,31,,,23*7D\x0d\x0a
(31) $GPGSV,5,5,17,50,57,343,26*48\x0d\x0a
[6;3HGPGSV GPGLL[27d(52) $GPGLL,2730.03889,S,15300.96053,E,020743.00,A,A*74\x0d\x0a
[6;15HGPTXT[28d(36) $GPTXT,01,01,01,PASH inv format*36\x0d\x0a
(36) $GPTXT,01,01,01,PASH inv format*36\x0d\x0a
[3;8H2014-12-12T02:07:44.000Z[39G27 30' 02.326" S[61G153 00' 57.634" E[6;21H(B[0;1mGPRMC[9;33H(B[m020744.00[10;35H2730.03878 S[11;34H15300.96057 E[12;33H0.198

[33GA[14;46HA[30d(68) $GPRMC,020744.00,A,2730.03878,S,15300.96057,E,0.198,,121214,,,A*65\x0d\x0a
[6;21HGPRMC GPVTG[31d(35) $GPVTG,,T,,M,0.198,N,0.367,K,A*21\x0d\x0a
[6;33HGPGGA[9;63H020744.00[10;63H2730.03878[11;63H15300.96057[12;63H-1.6
1[13;73H07[14;63H2.22
38.5[32d(74) $GPGGA,020744.00,2730.03878,S,15300.96057,E,1,07,2.22,-1.6,M,38.5,M,,*6D\x0d\x0a
[6;39HGPGSA[18;28HA 3
13 28 9 7 30 5 17[20;29H2.22 (B[0;1m V=(B[m3.70 (B[0;1m P=(B[m4.32[33d(56) $GPGSA,A,3,13,28,09,07,30,05,17,,,,,,4.32,2.22,3.70*07\x0d\x0a
[10;7H1  83 19   0
[7G4 113 11
[6G 5 282  5  17
[6G 7  82 40  20[34d(68) $GPGSV,5,1,17,01,19,083,,04,11,113,20,05,05,282,17,07,40,082,20*79\x0d\x0a
[14;6H 8   0  0  24
[6G 9  16 16  21
[7G0 332  4  16
[6G11   0  0  23[35d(60) $GPGSV,5,2,17,08,,,24,09,16,016,21,10,04,332,16,11,,,23*7D\x0d\x0a
[18;6H13 256 61  33
[6G17 344 50  29
[6G19 143  4   0
[6G26 227 33  26[36d(68) $GPGSV,5,3,17,13,61,256,33,17,50,344,29,19,04,143,,26,33,227,26*7B\x0d\x0a
(60) $GPGSV,5,4,17,28,58,208,27,29,,,23,30,63,131,32,31,,,23*7B\x0d\x0a
(31) $GPGSV,5,5,17,50,57,343,27*49\x0d\x0a
(52) $GPGLL,2730.03878,S,15300.96057,E,020744.00,A,A*79\x0d\x0a
[23d[M[3;26H5[3;51H2[3;74H3[9;38H5
[44G0
6[12;35H054[39d(68) $GPRMC,020745.00,A,2730.03870,S,15300.96056,E,0.054,,121214,,,A*6C\x0d\x0a
[23d[M[39d(35) $GPVTG,,T,,M,0.054,N,0.100,K,A*23\x0d\x0a
[23d[M[9;68H5
3870
6[12;64H2.3

1.87[39d(74) $GPGGA,020745.00,2730.03870,S,15300.96056,E,1,07,1.87,-2.3,M,38.5,M,,*6F\x0d\x0a
[23d[M[20;29H1.87[39G67[47G1[39d(56) $GPGSA,A,3,13,28,09,07,30,05,17,,,,,,4.12,1.87,3.67*0F\x0d\x0a
[23d[M[11;18H1
6
3[39d(68) $GPGSV,5,1,17,01,19,083,,04,11,113,21,05,05,282,16,07,40,082,23*7A\x0d\x0a
[23d[M[16;18H5[39d(60) $GPGSV,5,2,17,08,,,24,09,16,016,21,10,04,332,15,11,,,23*7E\x0d\x0a
[23d[M[19;17H30
16[39d(70) $GPGSV,5,3,17,13,61,256,33,17,50,344,30,19,04,143,16,26,33,227,26*74\x0d\x0a
[23d[M[39d(60) $GPGSV,5,4,17,28,58,208,27,29,,,23,30,63,131,32,31,,,23*7B\x0d\x0a
[23d[M[39d(31) $GPGSV,5,5,17,50,57,343,26*48\x0d\x0a
[23d[M[39d(52) $GPGLL,2730.03870,S,15300.96056,E,020745.00,A,A*71\x0d\x0a
[23d[M[3;26H6[3;73H27[9;38H6
[44G1
4[12;36H62[39d(68) $GPRMC,020746.00,A,2730.03871,S,15300.96046,E,0.062,,121214,,,A*6A\x0d\x0a
[23d[M[39d(35) $GPVTG,,T,,M,0.062,N,0.114,K,A*23\x0d\x0a
[23d[M[9;68H6
3871
4[12;66H7[39d(74) $GPGGA,020746.00,2730.03871,S,15300.96046,E,1,07,1.87,-2.7,M,38.5,M,,*68\x0d\x0a
[23d[M[39d(56) $GPGSA,A,3,13,28,09,07,30,05,17,,,,,,4.12,1.87,3.67*0F\x0d\x0a
[23d[M[13;18H5[39d(68) $GPGSV,4,1,16,01,19,083,,04,11,113,21,05,05,282,16,07,40,082,25*7C\x0d\x0a
[23d[M[14;18H3

3[39d(60) $GPGSV,4,2,16,08,,,23,09,16,016,21,10,04,332,13,11,,,23*7F\x0d\x0a
[23d[M[18;11H7[20;18H5
5[39d(70) $GPGSV,4,3,16,13,61,257,33,17,50,344,30,19,04,143,15,26,33,227,25*75\x0d\x0a
[23d[M[39d(60) $GPGSV,4,4,16,28,58,208,27,29,,,23,30,63,131,32,31,,,23*7B\x0d\x0a
[23d[M[39d(52) $GPGLL,2730.03871,S,15300.96046,E,020746.00,A,A*72\x0d\x0a
[23d[M[3;26H7[3;51H7[3;73H19[9;38H7
.03880
33[12;35H169[39d(68) $GPRMC,020747.00,A,2730.03880,S,15300.96033,E,0.169,,121214,,,A*6D\x0d\x0a
[23d[M[39d(35) $GPVTG,,T,,M,0.169,N,0.312,K,A*2D\x0d\x0a
[23d[M[9;68H7
3880
33[12;66H6[13;74H6[39d(74) $GPGGA,020747.00,2730.03880,S,15300.96033,E,1,06,1.87,-2.6,M,38.5,M,,*65\x0d\x0a
[23d[M[19;41H17  [39d(54) $GPGSA,A,3,13,28,09,07,30,17,,,,,,,4.12,1.87,3.67*0A\x0d\x0a
[23d[M[11;18H0
 0
6[39d(66) $GPGSV,5,1,17,01,19,083,,04,11,113,20,05,05,282,,07,40,082,26*79\x0d\x0a
[23d[M[16;17H 0[39d(58) $GPGSV,5,2,17,08,,,23,09,16,016,21,10,04,332,,11,,,23*7D\x0d\x0a
[23d[M[20;18H3[39d(70) $GPGSV,5,3,17,13,61,257,33,17,50,344,30,19,04,143,13,26,33,227,25*73\x0d\x0a
[23d[M[39d(60) $GPGSV,5,4,17,28,58,208,26,29,,,23,30,63,131,32,31,,,23*7A\x0d\x0a
[23d[M[39d(31) $GPGSV,5,5,17,50,57,343,28*46\x0d\x0a
[23d[M[39d(52) $GPGLL,2730.03880,S,15300.96033,E,020747.00,A,A*7F\x0d\x0a
[23d[M[3;26H8[3;50H34[3;74H4[9;38H8
.03891
24[12;35H211[39d(68) $GPRMC,020748.00,A,2730.03891,S,15300.96024,E,0.211,,121214,,,A*68\x0d\x0a
[23d[M[39d(35) $GPVTG,,T,,M,0.211,N,0.390,K,A*2B\x0d\x0a
[23d[M[9;68H8
3891
24[12;64H3.0

6[39d(74) $GPGGA,020748.00,2730.03891,S,15300.96024,E,1,06,1.86,-3.0,M,38.5,M,,*6A\x0d\x0a
[23d[M[20;32H6[39d(54) $GPGSA,A,3,13,28,09,07,30,17,,,,,,,4.12,1.86,3.67*0B\x0d\x0a
[23d[M[11;17H19
16
7[39d(68) $GPGSV,5,1,17,01,19,083,,04,11,113,19,05,05,282,16,07,40,082,27*75\x0d\x0a
[23d[M[39d(58) $GPGSV,5,2,17,08,,,23,09,16,016,21,10,04,332,,11,,,23*7D\x0d\x0a
[23d[M[20;17H 0[39d(68) $GPGSV,5,3,17,13,61,257,33,17,50,344,30,19,04,143,,26,33,227,25*71\x0d\x0a
[23d[M[39d(60) $GPGSV,5,4,17,28,58,208,26,29,,,23,30,63,131,32,31,,,23*7A\x0d\x0a
[23d[M[39d(31) $GPGSV,5,5,17,50,57,343,27*49\x0d\x0a
[23d[M[39d(52) $GPGLL,2730.03891,S,15300.96024,E,020748.00,A,A*76\x0d\x0a
[23d[M[3;26H9[3;51H6[3;73H07[9;38H9
[44G4
13[12;35H168[39d(68) $GPRMC,020749.00,A,2730.03894,S,15300.96013,E,0.168,,121214,,,A*65\x0d\x0a
[23d[M[39d(35) $GPVTG,,T,,M,0.168,N,0.311,K,A*2F\x0d\x0a
[23d[M[9;68H9
3894
13[12;66H3[39d(74) $GPGGA,020749.00,2730.03894,S,15300.96013,E,1,06,1.86,-3.3,M,38.5,M,,*69\x0d\x0a
[23d[M[20;48H1[39d(54) $GPGSA,A,3,13,28,09,07,30,17,,,,,,,4.11,1.86,3.67*08\x0d\x0a
[23d[M[12;18H9[39d(68) $GPGSV,5,1,17,01,19,083,,04,11,113,19,05,05,282,19,07,40,082,27*7A\x0d\x0a
[23d[M[15;18H0[39d(58) $GPGSV,5,2,17,08,,,23,09,16,016,20,10,04,332,,11,,,23*7C\x0d\x0a
[23d[M[19;18H1
23[39d(70) $GPGSV,5,3,17,13,61,257,33,17,50,344,31,19,04,143,23,26,33,227,25*71\x0d\x0a
[23d[M[39d(60) $GPGSV,5,4,17,28,58,208,26,29,,,22,30,63,131,32,31,,,23*7B\x0d\x0a
[23d[M[39d(31) $GPGSV,5,5,17,50,57,343,27*49\x0d\x0a
[23d[M[39d(52) $GPGLL,2730.03894,S,15300.96013,E,020749.00,A,A*76\x0d\x0a
[23d[M[3;25H50[3;50H19[3;74H4[9;37H50
.03866
07[12;35H417[39d(68) $GPRMC,020750.00,A,2730.03866,S,15300.96007,E,0.417,,121214,,,A*68\x0d\x0a
[23d[M[39d(35) $GPVTG,,T,,M,0.417,N,0.771,K,A*20\x0d\x0a
[23d[M[9;67H50
3866
07[39d(74) $GPGGA,020750.00,2730.03866,S,15300.96007,E,1,06,1.86,-3.3,M,38.5,M,,*69\x0d\x0a
[23d[M[20;40H6[39d(54) $GPGSA,A,3,13,28,09,07,30,17,,,,,,,4.11,1.86,3.66*09\x0d\x0a
[23d[M[11;17H20
6[39d(68) $GPGSV,4,1,16,01,19,083,,04,11,113,20,05,05,282,16,07,40,082,27*7F\x0d\x0a
[23d[M[39d(58) $GPGSV,4,2,16,08,,,23,09,16,016,20,10,04,332,,11,,,23*7C\x0d\x0a
[23d[M[19;18H0
0[39d(70) $GPGSV,4,3,16,13,61,257,33,17,50,344,30,19,04,143,20,26,33,227,25*73\x0d\x0a
[23d[M[39d(60) $GPGSV,4,4,16,28,58,208,26,29,,,22,30,63,131,32,31,,,23*7B\x0d\x0a
[23d[M[39d(52) $GPGLL,2730.03866,S,15300.96007,E,020750.00,A,A*76\x0d\x0a
[23d[M[3;26H1[3;51H1[3;74H7[9;38H1
.03852
12[12;36H25[39d(68) $GPRMC,020751.00,A,2730.03852,S,15300.96012,E,0.425,,121214,,,A*6B\x0d\x0a
[23d[M[39d(35) $GPVTG,,T,,M,0.425,N,0.788,K,A*27\x0d\x0a
[23d[M[9;68H1
3852
12[12;66H2[39d(74) $GPGGA,020751.00,2730.03852,S,15300.96012,E,1,06,1.86,-3.2,M,38.5,M,,*6A\x0d\x0a
[23d[M[39d(54) $GPGSA,A,3,13,28,09,07,30,17,,,,,,,4.11,1.86,3.66*09\x0d\x0a
[23d[M[12;17H 0
6[39d(66) $GPGSV,4,1,16,01,19,083,,04,11,113,20,05,05,282,,07,40,082,26*79\x0d\x0a
[23d[M[14;18H2
18
17
2[39d(60) $GPGSV,4,2,16,08,,,22,09,16,016,18,10,04,332,17,11,,,22*71\x0d\x0a
[23d[M[18;18H2
24
 [39d(68) $GPGSV,4,3,16,13,61,257,32,17,50,344,24,19,04,143,,26,33,227,25*75\x0d\x0a
[23d[M[39d(60) $GPGSV,4,4,16,28,58,208,26,29,,,22,30,63,131,31,31,,,22*79\x0d\x0a
[23d[M[39d(52) $GPGLL,2730.03852,S,15300.96012,E,020751.00,A,A*74\x0d\x0a
[23d[M[3;26H2[3;51H5[3;74H5[9;38H2
[44G9
09[12;35H398[39d(68) $GPRMC,020752.00,A,2730.03859,S,15300.96009,E,0.398,,121214,,,A*68\x0d\x0a
[23d[M[39d(35) $GPVTG,,T,,M,0.398,N,0.737,K,A*22\x0d\x0a
[23d[M[9;68H2
3859
09[12;66H4[39d(74) $GPGGA,020752.00,2730.03859,S,15300.96009,E,1,06,1.86,-3.4,M,38.5,M,,*6E\x0d\x0a
[23d[M[39d(54) $GPGSA,A,3,13,28,09,07,30,17,,,,,,,4.11,1.86,3.66*09\x0d\x0a
[23d[M[11;18H1[39d(66) $GPGSV,4,1,16,01,19,083,,04,11,113,21,05,05,282,,07,40,082,26*78\x0d\x0a
[23d[M[14;18H4
9
 0[39d(58) $GPGSV,4,2,16,08,,,24,09,16,016,19,10,04,332,,11,,,22*70\x0d\x0a
[23d[M[19;17H31
24
6[39d(70) $GPGSV,4,3,16,13,61,257,32,17,50,344,31,19,04,143,24,26,33,227,26*74\x0d\x0a
[23d[M[39d(60) $GPGSV,4,4,16,28,58,208,26,29,,,23,30,63,131,32,31,,,23*7A\x0d\x0a
[23d[M[39d(52) $GPGLL,2730.03859,S,15300.96009,E,020752.00,A,A*76\x0d\x0a
[23d[M[3;26H3[3;50H21[3;72H599[9;38H3
.0386
0[12;35H166[39d(68) $GPRMC,020753.00,A,2730.03869,S,15300.96000,E,0.166,,121214,,,A*60\x0d\x0a
[23d[M[39d(35) $GPVTG,,T,,M,0.166,N,0.307,K,A*26\x0d\x0a
[23d[M[9;68H3
386
00[12;64H2.9[39d(74) $GPGGA,020753.00,2730.03869,S,15300.96000,E,1,06,1.86,-2.9,M,38.5,M,,*69\x0d\x0a
[23d[M[39d(54) $GPGSA,A,3,13,28,09,07,30,17,,,,,,,4.11,1.86,3.66*09\x0d\x0a
[23d[M[11;18H3[39d(66) $GPGSV,4,1,16,01,19,083,,04,11,113,23,05,05,282,,07,40,082,26*7A\x0d\x0a
[23d[M[15;17H21

4[39d(58) $GPGSV,4,2,16,08,,,24,09,16,016,21,10,04,332,,11,,,24*7D\x0d\x0a
[23d[M[18;18H3

1[39d(70) $GPGSV,4,3,16,13,61,257,33,17,50,344,31,19,04,143,21,26,33,227,26*70\x0d\x0a
[23d[M[39d(60) $GPGSV,4,4,16,28,58,208,27,29,,,23,30,63,131,33,31,,,24*7D\x0d\x0a
[23d[M[39d(52) $GPGLL,2730.03869,S,15300.96000,E,020753.00,A,A*7D\x0d\x0a
[23d[M[3;26H4[3;50H33[9;38H4
.03890[12;35H0[39d(68) $GPRMC,020754.00,A,2730.03890,S,15300.96000,E,0.066,,121214,,,A*60\x0d\x0a
[23d[M[39d(35) $GPVTG,,T,,M,0.066,N,0.123,K,A*23\x0d\x0a
[23d[M[9;68H4
3890[12;66H4[39d(74) $GPGGA,020754.00,2730.03890,S,15300.96000,E,1,06,1.86,-2.4,M,38.5,M,,*65\x0d\x0a
[23d[M[39d(54) $GPGSA,A,3,13,28,09,07,30,17,,,,,,,4.11,1.86,3.66*09\x0d\x0a
[23d[M[11;17H 0

5[39d(64) $GPGSV,4,1,16,01,19,083,,04,11,113,,05,05,282,,07,40,082,25*78\x0d\x0a
[23d[M[15;18H0

3[39d(58) $GPGSV,4,2,16,08,,,24,09,16,016,20,10,04,332,,11,,,23*7B\x0d\x0a
[23d[M[19;17H26
6
5[39d(70) $GPGSV,4,3,16,13,61,257,33,17,50,344,26,19,04,143,26,26,33,227,25*72\x0d\x0a
[23d[M[39d(60) $GPGSV,4,4,16,28,58,208,26,29,,,23,30,63,131,30,31,,,24*7F\x0d\x0a
[23d[M[39d(52) $GPGLL,2730.03890,S,15300.96000,E,020754.00,A,A*7C\x0d\x0a
[23d[M[3;26H5[3;51H5[9;38H5
[44G3
5999[12;35H162[39d(68) $GPRMC,020755.00,A,2730.03893,S,15300.95999,E,0.162,,121214,,,A*6D\x0d\x0a
[23d[M[39d(35) $GPVTG,,T,,M,0.162,N,0.300,K,A*25\x0d\x0a
[23d[M[9;68H5
3893
5999[12;66H0[39d(74) $GPGGA,020755.00,2730.03893,S,15300.95999,E,1,06,1.86,-2.0,M,38.5,M,,*69\x0d\x0a
[23d[M[20;48H0[39d(54) $GPGSA,A,3,13,28,09,07,30,17,,,,,,,4.10,1.86,3.66*08\x0d\x0a
[23d[M[39d(64) $GPGSV,4,1,16,01,19,083,,04,11,113,,05,05,282,,07,40,082,25*78\x0d\x0a
[23d[M[14;18H3
1[39d(58) $GPGSV,4,2,16,08,,,23,09,16,016,21,10,04,332,,11,,,23*7D\x0d\x0a
[23d[M[19;18H7
13[39d(70) $GPGSV,4,3,16,13,61,257,33,17,50,344,27,19,04,143,13,26,33,227,25*75\x0d\x0a
[23d[M[39d(60) $GPGSV,4,4,16,28,58,208,26,29,,,23,30,63,131,30,31,,,24*7F\x0d\x0a
[23d[M[39d(52) $GPGLL,2730.03893,S,15300.95999,E,020755.00,A,A*74\x0d\x0a
[23d[M[3;26H6[3;51H8[3;72H604[9;38H6
[44G7
6007[12;36H94[39d(68) $GPRMC,020756.00,A,2730.03897,S,15300.96007,E,0.194,,121214,,,A*6E\x0d\x0a
[23d[M[39d(35) $GPVTG,,T,,M,0.194,N,0.360,K,A*2A\x0d\x0a
[23d[M[9;68H6
3897
6007[12;64H1.4[39d(74) $GPGGA,020756.00,2730.03897,S,15300.96007,E,1,06,1.86,-1.4,M,38.5,M,,*64\x0d\x0a
[23d[M[39d(54) $GPGSA,A,3,13,28,09,07,30,17,,,,,,,4.10,1.86,3.66*08\x0d\x0a
[23d[M[13;18H4[39d(64) $GPGSV,4,1,16,01,19,083,,04,11,113,,05,05,282,,07,40,082,24*79\x0d\x0a
[23d[M[15;18H2

2[39d(58) $GPGSV,4,2,16,08,,,23,09,16,016,22,10,04,332,,11,,,22*7F\x0d\x0a
[23d[M[19;18H8
0[39d(70) $GPGSV,4,3,16,13,61,257,33,17,50,344,28,19,04,143,10,26,33,227,25*79\x0d\x0a
[23d[M[39d(60) $GPGSV,4,4,16,28,58,208,26,29,,,22,30,63,131,31,31,,,23*78\x0d\x0a
[23d[M[39d(52) $GPGLL,2730.03897,S,15300.96007,E,020756.00,A,A*7E\x0d\x0a
[23d[M[3;26H7[3;72H597[9;38H7

.95995[12;35H27[39d(68) $GPRMC,020757.00,A,2730.03897,S,15300.95995,E,0.274,,121214,,,A*63\x0d\x0a
[23d[M[39d(35) $GPVTG,,T,,M,0.274,N,0.508,K,A*2F\x0d\x0a
[23d[M[9;68H7

95995[12;66H1[39d(74) $GPGGA,020757.00,2730.03897,S,15300.95995,E,1,06,1.86,-1.1,M,38.5,M,,*61\x0d\x0a
[23d[M[20;40H5[39d(54) $GPGSA,A,3,13,28,09,07,30,17,,,,,,,4.10,1.86,3.65*0B\x0d\x0a
[23d[M[13;18H3[39d(64) $GPGSV,4,1,16,01,19,083,,04,11,113,,05,05,282,,07,40,082,23*7E\x0d\x0a
[23d[M[14;18H2
3

3[39d(58) $GPGSV,4,2,16,08,,,22,09,16,016,23,10,04,332,,11,,,23*7E\x0d\x0a
[23d[M[18;17H29
9
 [39d(68) $GPGSV,4,3,16,13,61,257,29,17,50,344,29,19,04,143,,26,33,227,25*72\x0d\x0a
[23d[M[39d(60) $GPGSV,4,4,16,28,58,208,26,29,,,22,30,63,131,31,31,,,23*78\x0d\x0a
[23d[M[39d(52) $GPGLL,2730.03897,S,15300.95995,E,020757.00,A,A*7E\x0d\x0a
[23d[M[3;26H8[3;50H29[3;74H5[9;38H8
.03883
3[12;35H369[39d(68) $GPRMC,020758.00,A,2730.03883,S,15300.95993,E,0.369,,121214,,,A*62\x0d\x0a
[23d[M[39d(35) $GPVTG,,T,,M,0.369,N,0.683,K,A*22\x0d\x0a
[23d[M[9;68H8
3883
3[12;64H0.5[39d(74) $GPGGA,020758.00,2730.03883,S,15300.95993,E,1,06,1.86,-0.5,M,38.5,M,,*68\x0d\x0a
[23d[M[39d(54) $GPGSA,A,3,13,28,09,07,30,17,,,,,,,4.10,1.86,3.65*0B\x0d\x0a
[23d[M[12;17H2
1[39d(66) $GPGSV,4,1,16,01,19,083,,04,11,113,,05,05,282,20,07,40,082,21*7E\x0d\x0a
[23d[M[14;18H8

16
8[39d(60) $GPGSV,4,2,16,08,,,28,09,16,016,23,10,04,332,16,11,,,28*78\x0d\x0a
[23d[M[18;17H30

17
6[39d(70) $GPGSV,4,3,16,13,61,257,30,17,50,344,29,19,04,143,17,26,33,227,26*7F\x0d\x0a
[23d[M[39d(60) $GPGSV,4,4,16,28,58,208,26,29,,,26,30,63,131,32,31,,,23*7F\x0d\x0a
[23d[M[39d(52) $GPGLL,2730.03883,S,15300.95993,E,020758.00,A,A*72\x0d\x0a
[23d[M[3;26H9[3;50H36[3;72H601[9;38H9
.03894
6002[12;35H116[39d(68) $GPRMC,020759.00,A,2730.03894,S,15300.96002,E,0.116,,121214,,,A*6D\x0d\x0a
[23d[M[39d(35) $GPVTG,,T,,M,0.116,N,0.215,K,A*23\x0d\x0a
[23d[M[9;68H9
3894
6002[12;63H0.1 [13;74H7[39d(73) $GPGGA,020759.00,2730.03894,S,15300.96002,E,1,07,1.86,0.1,M,38.5,M,,*45\x0d\x0a
[23d[M[19;41H5 17[39d(56) $GPGSA,A,3,13,28,09,07,30,05,17,,,,,,4.10,1.86,3.65*0E\x0d\x0a
[23d[M[13;18H3[39d(66) $GPGSV,4,1,16,01,19,083,,04,11,113,,05,05,282,20,07,40,082,23*7C\x0d\x0a
[23d[M[14;18H9

 0
7[39d(58) $GPGSV,4,2,16,08,,,29,09,16,016,23,10,04,332,,11,,,27*71\x0d\x0a
[23d[M[18;18H3
30
 0[21;11H8[18G5[39d(68) $GPGSV,4,3,16,13,61,257,33,17,50,344,30,19,04,143,,26,33,228,25*7E\x0d\x0a
[23d[M[39d(60) $GPGSV,4,4,16,28,58,208,26,29,,,27,30,63,131,32,31,,,23*7E\x0d\x0a
[23d[M[39d(52) $GPGLL,2730.03894,S,15300.96002,E,020759.00,A,A*77\x0d\x0a
[23d[M[3;23H8:00[3;51H8[3;74H5[9;36H800
[44G8
9[12;36H81[39d(68) $GPRMC,020800.00,A,2730.03898,S,15300.96009,E,0.181,,121214,,,A*67\x0d\x0a
[23d[M[39d(35) $GPVTG,,T,,M,0.181,N,0.334,K,A*2F\x0d\x0a
[23d[M[9;66H800
3898
9[12;65H0[39d(73) $GPGGA,020800.00,2730.03898,S,15300.96009,E,1,07,1.86,0.0,M,38.5,M,,*40\x0d\x0a
[23d[M[39d(56) $GPGSA,A,3,13,28,09,07,30,05,17,,,,,,4.10,1.86,3.65*0E\x0d\x0a
[23d[M[11;17H25
18
6[39d(68) $GPGSV,4,1,16,01,19,083,,04,11,113,25,05,05,282,18,07,40,082,26*75\x0d\x0a
[23d[M[14;18H7
2

6[39d(58) $GPGSV,4,2,16,08,,,27,09,16,016,22,10,04,332,,11,,,26*7F\x0d\x0a
[23d[M[19;18H1
18
6[39d(70) $GPGSV,4,3,16,13,61,257,33,17,50,344,31,19,04,143,18,26,33,228,26*75\x0d\x0a
[23d[M[39d(60) $GPGSV,4,4,16,28,58,208,27,29,,,25,30,63,131,33,31,,,23*7C\x0d\x0a
[23d[M[39d(52) $GPGLL,2730.03898,S,15300.96009,E,020800.00,A,A*73\x0d\x0a
[23d[M[3;26H1[3;50H44[3;74H9[9;38H1
.0390
15[12;35H074[39d(68) $GPRMC,020801.00,A,2730.03908,S,15300.96015,E,0.074,,121214,,,A*68\x0d\x0a
[23d[M[39d(35) $GPVTG,,T,,M,0.074,N,0.137,K,A*25\x0d\x0a
[23d[M[9;68H1
390
15[12;63H-0.2[13;74H5[14;63H2.14[39d(74) $GPGGA,020801.00,2730.03908,S,15300.96015,E,1,05,2.14,-0.2,M,38.5,M,,*61\x0d\x0a
[23d[M[19;34H7 30 17    [20;29H2.14 (B[0;1m V=(B[m8.27 (B[0;1m P=(B[m8.54[39d(52) $GPGSA,A,3,13,28,07,30,17,,,,,,,,8.54,2.14,8.27*0B\x0d\x0a
[23d[M[13;18H7[39d(68) $GPGSV,4,1,16,01,19,083,,04,11,113,25,05,05,282,18,07,40,082,27*74\x0d\x0a
[23d[M[14;18H6
 0

5[39d(56) $GPGSV,4,2,16,08,,,26,09,16,016,,10,04,332,,11,,,25*7D\x0d\x0a
[23d[M[20;18H7[39d(70) $GPGSV,4,3,16,13,61,257,33,17,50,344,31,19,04,143,17,26,33,228,26*7A\x0d\x0a
[23d[M[39d(60) $GPGSV,4,4,16,28,58,207,27,29,,,24,30,63,131,33,31,,,23*72\x0d\x0a
[23d[M[39d(52) $GPGLL,2730.03908,S,15300.96015,E,020801.00,A,A*77\x0d\x0a
[23d[M[3;26H2[3;51H6[3;73H10[9;38H2
.03911
8[12;37H0[39d(68) $GPRMC,020802.00,A,2730.03911,S,15300.96018,E,0.070,,121214,,,A*6A\x0d\x0a
[23d[M[39d(35) $GPVTG,,T,,M,0.070,N,0.130,K,A*26\x0d\x0a
[23d[M[9;68H2
3911
8[12;66H5[13;74H6[39d(74) $GPGGA,020802.00,2730.03911,S,15300.96018,E,1,06,2.14,-0.5,M,38.5,M,,*63\x0d\x0a
[23d[M[19;34H9 7 30 17
6[39d(54) $GPGSA,A,3,13,28,09,07,30,17,,,,,,,8.54,2.14,8.26*03\x0d\x0a
[23d[M[11;18H4
5[39d(68) $GPGSV,4,1,16,01,19,083,,04,11,113,24,05,05,282,15,07,40,082,27*78\x0d\x0a
[23d[M[14;18H5
2[39d(58) $GPGSV,4,2,16,08,,,25,09,16,016,20,10,04,332,,11,,,25*7C\x0d\x0a
[23d[M[18;18H2

32
5[39d(70) $GPGSV,4,3,16,13,61,257,32,17,50,344,31,19,04,143,32,26,33,228,25*7F\x0d\x0a
[23d[M[39d(60) $GPGSV,4,4,16,28,58,207,26,29,,,25,30,63,131,32,31,,,23*73\x0d\x0a
[23d[M[39d(52) $GPGLL,2730.03911,S,15300.96018,E,020802.00,A,A*71\x0d\x0a
[23d[M[3;26H3[3;50H51[9;38H3
[44G9[12;36H53[39d(68) $GPRMC,020803.00,A,2730.03919,S,15300.96018,E,0.053,,121214,,,A*62\x0d\x0a
[23d[M[39d(35) $GPVTG,,T,,M,0.053,N,0.099,K,A*25\x0d\x0a
[23d[M[9;68H3
3919[12;66H8[39d(74) $GPGGA,020803.00,2730.03919,S,15300.96018,E,1,06,2.14,-0.8,M,38.5,M,,*67\x0d\x0a
[23d[M[20;48H3[39d(54) $GPGSA,A,3,13,28,09,07,30,17,,,,,,,8.53,2.14,8.26*04\x0d\x0a
[23d[M[11;18H3
9[39d(68) $GPGSV,4,1,16,01,19,083,,04,11,113,23,05,05,282,19,07,40,082,27*73\x0d\x0a
[23d[M[14;18H4
18

4[39d(58) $GPGSV,4,2,16,08,,,24,09,16,016,18,10,04,332,,11,,,24*77\x0d\x0a
[23d[M[20;17H2
3[39d(70) $GPGSV,4,3,16,13,61,257,32,17,50,344,31,19,04,143,22,26,33,228,23*78\x0d\x0a
[23d[M[39d(60) $GPGSV,4,4,16,28,58,207,26,29,,,24,30,63,130,32,31,,,22*72\x0d\x0a
[23d[M[39d(52) $GPGLL,2730.03919,S,15300.96018,E,020803.00,A,A*78\x0d\x0a
[23d[M[3;26H4[3;51H6[3;73H07[9;38H4
.03928
3[12;36H42[39d(68) $GPRMC,020804.00,A,2730.03928,S,15300.96013,E,0.042,,121214,,,A*6C\x0d\x0a
[23d[M[39d(35) $GPVTG,,T,,M,0.042,N,0.078,K,A*2A\x0d\x0a
[23d[M[9;68H4
3928
3[12;64H1.1[13;74H5[39d(74) $GPGGA,020804.00,2730.03928,S,15300.96013,E,1,05,2.14,-1.1,M,38.5,M,,*62\x0d\x0a
[23d[M[19;34H7 30 17  [39d(52) $GPGSA,A,3,13,28,07,30,17,,,,,,,,8.53,2.14,8.26*0D\x0d\x0a
[23d[M[11;18H2
7[39d(68) $GPGSV,4,1,16,01,19,083,,04,11,113,22,05,05,282,17,07,40,082,27*7C\x0d\x0a
[23d[M[14;18H5
7[39d(58) $GPGSV,4,2,16,08,,,25,09,16,016,17,10,04,332,,11,,,24*79\x0d\x0a
[23d[M[20;18H0[39d(70) $GPGSV,4,3,16,13,61,257,32,17,50,344,31,19,04,143,20,26,33,228,23*7A\x0d\x0a
[23d[M[39d(60) $GPGSV,4,4,16,28,58,207,25,29,,,24,30,63,130,32,31,,,22*71\x0d\x0a
[23d[M[39d(52) $GPGLL,2730.03928,S,15300.96013,E,020804.00,A,A*76\x0d\x0a
[23d[M[3;26H5[3;50H45[3;73H16[9;38H5
.03909
27[12;35H393[39d(68) $GPRMC,020805.00,A,2730.03909,S,15300.96027,E,0.393,,121214,,,A*66\x0d\x0a
[23d[M[39d(35) $GPVTG,,T,,M,0.393,N,0.729,K,A*26\x0d\x0a
[23d[M[9;68H5
3909
27

6[39d(74) $GPGGA,020805.00,2730.03909,S,15300.96027,E,1,06,2.14,-1.1,M,38.5,M,,*64\x0d\x0a
[23d[M[19;34H9 7 30 17
5[39d(54) $GPGSA,A,3,13,28,09,07,30,17,,,,,,,8.53,2.14,8.25*07\x0d\x0a
[23d[M[39d(68) $GPGSV,4,1,16,01,19,083,,04,11,113,22,05,05,282,17,07,40,082,27*7C\x0d\x0a
[23d[M[14;18H6
22

6[39d(58) $GPGSV,4,2,16,08,,,26,09,16,016,22,10,04,332,,11,,,26*7E\x0d\x0a
[23d[M[18;18H3

 [39d(68) $GPGSV,4,3,16,13,61,257,33,17,50,344,31,19,04,143,,26,33,228,23*79\x0d\x0a
[23d[M[39d(60) $GPGSV,4,4,16,28,58,207,26,29,,,26,30,63,130,32,31,,,23*71\x0d\x0a
[23d[M[39d(52) $GPGLL,2730.03909,S,15300.96027,E,020805.00,A,A*73\x0d\x0a
[23d[M[3;26H6[3;51H7[3;74H1[9;38H6
.03912
19[12;35H178[39d(68) $GPRMC,020806.00,A,2730.03912,S,15300.96019,E,0.178,,121214,,,A*65\x0d\x0a
[23d[M[39d(35) $GPVTG,,T,,M,0.178,N,0.330,K,A*2D\x0d\x0a
[23d[M[9;68H6
3912
19[12;66H2[39d(74) $GPGGA,020806.00,2730.03912,S,15300.96019,E,1,06,2.14,-1.2,M,38.5,M,,*63\x0d\x0a
[23d[M[19;34H7 30 5[20;48H2[39d(54) $GPGSA,A,3,13,28,07,30,05,17,,,,,,,8.52,2.14,8.25*0A\x0d\x0a
[23d[M[11;18H1
8
8[39d(68) $GPGSV,4,1,16,01,19,083,,04,11,113,21,05,05,282,18,07,40,082,28*7F\x0d\x0a
[23d[M[15;18H1
2[39d(60) $GPGSV,4,2,16,08,,,26,09,16,016,21,10,04,332,20,11,,,26*7F\x0d\x0a
[23d[M[20;17H16
4[39d(70) $GPGSV,4,3,16,13,61,257,33,17,50,344,31,19,04,143,16,26,33,228,24*79\x0d\x0a
[23d[M[39d(60) $GPGSV,4,4,16,28,58,207,26,29,,,25,30,63,130,32,31,,,23*72\x0d\x0a
[23d[M[39d(52) $GPGLL,2730.03912,S,15300.96019,E,020806.00,A,A*77\x0d\x0a
[23d[M[3;26H7[3;50H51[3;73H07[9;38H7
[44G9
3[12;35H017[39d(68) $GPRMC,020807.00,A,2730.03919,S,15300.96013,E,0.017,,121214,,,A*6D\x0d\x0a
[23d[M[39d(35) $GPVTG,,T,,M,0.017,N,0.031,K,A*27\x0d\x0a
[23d[M[9;68H7
3919
3

7[39d(74) $GPGGA,020807.00,2730.03919,S,15300.96013,E,1,07,2.14,-1.2,M,38.5,M,,*62\x0d\x0a
[23d[M[19;34H9 7 30 5 17[39d(56) $GPGSA,A,3,13,28,09,07,30,05,17,,,,,,8.52,2.14,8.25*03\x0d\x0a
[23d[M[11;18H2
9[39d(68) $GPGSV,4,1,16,01,19,083,,04,11,113,22,05,05,282,19,07,40,082,28*7D\x0d\x0a
[23d[M[16;17H17[39d(60) $GPGSV,4,2,16,08,,,26,09,16,016,21,10,04,332,17,11,,,26*7B\x0d\x0a
[23d[M[20;18H5[39d(70) $GPGSV,4,3,16,13,61,257,33,17,50,344,31,19,04,143,15,26,33,228,24*7A\x0d\x0a
[23d[M[39d(60) $GPGSV,4,4,16,28,58,207,26,29,,,25,30,63,130,32,31,,,23*72\x0d\x0a
[23d[M[39d(52) $GPGLL,2730.03919,S,15300.96013,E,020807.00,A,A*77\x0d\x0a
[23d[M[3;26H8[3;50H48[9;38H8
[44G4
2[12;36H66[39d(68) $GPRMC,020808.00,A,2730.03914,S,15300.96012,E,0.066,,121214,,,A*68\x0d\x0a
[23d[M[39d(35) $GPVTG,,T,,M,0.066,N,0.122,K,A*22\x0d\x0a
[23d[M[9;68H8
3914
2

5[39d(74) $GPGGA,020808.00,2730.03914,S,15300.96012,E,1,05,2.14,-1.2,M,38.5,M,,*63\x0d\x0a
[23d[M[19;34H7 30 17    
[40G4[39d(52) $GPGSA,A,3,13,28,07,30,17,,,,,,,,8.52,2.14,8.24*0E\x0d\x0a
[23d[M[11;18H1
7
7[39d(68) $GPGSV,4,1,16,01,19,083,,04,11,113,21,05,05,282,17,07,40,082,27*7F\x0d\x0a
[23d[M[15;17H19
22[39d(60) $GPGSV,4,2,16,08,,,26,09,16,016,19,10,04,332,22,11,,,26*76\x0d\x0a
[23d[M[18;18H0
27
26
3[39d(70) $GPGSV,4,3,16,13,61,257,30,17,50,344,27,19,04,143,26,26,33,228,23*79\x0d\x0a
[23d[M[39d(60) $GPGSV,4,4,16,28,58,207,26,29,,,26,30,63,130,29,31,,,23*7B\x0d\x0a
[23d[M[39d(52) $GPGLL,2730.03914,S,15300.96012,E,020808.00,A,A*74\x0d\x0a
[23d[M[3;26H9[3;51H7[3;74H6[9;38H9
[44G2
1[12;36H47[39d(68) $GPRMC,020809.00,A,2730.03912,S,15300.96011,E,0.047,,121214,,,A*6F\x0d\x0a
[23d[M[39d(35) $GPVTG,,T,,M,0.047,N,0.087,K,A*2F\x0d\x0a
[23d[M[9;68H9
3912
1[12;66H3[39d(74) $GPGGA,020809.00,2730.03912,S,15300.96011,E,1,05,2.14,-1.3,M,38.5,M,,*66\x0d\x0a
[23d[M[20;48H1[39d(52) $GPGSA,A,3,13,28,07,30,17,,,,,,,,8.51,2.14,8.24*0D\x0d\x0a
[23d[M[11;18H2[39d(68) $GPGSV,4,1,16,01,19,083,,04,11,113,22,05,05,282,17,07,40,082,27*7C\x0d\x0a
[23d[M[15;18H6
19
7[39d(60) $GPGSV,4,2,16,08,,,26,09,16,016,16,10,04,332,19,11,,,27*70\x0d\x0a
[23d[M[18;18H4
9
5[39d(70) $GPGSV,4,3,16,13,61,257,34,17,50,344,29,19,04,143,25,26,33,228,23*70\x0d\x0a
[23d[M[39d(60) $GPGSV,4,4,16,28,58,207,25,29,,,26,30,63,130,33,31,,,23*73\x0d\x0a
[23d[M[39d(52) $GPGLL,2730.03912,S,15300.96011,E,020809.00,A,A*70\x0d\x0a
[23d[M[3;25H10[3;51H6[9;37H10
[44G0
0[12;36H33[39d(68) $GPRMC,020810.00,A,2730.03910,S,15300.96010,E,0.033,,121214,,,A*67\x0d\x0a
[23d[M[39d(35) $GPVTG,,T,,M,0.033,N,0.061,K,A*24\x0d\x0a
[23d[M[9;67H10
3910
0[39d(74) $GPGGA,020810.00,2730.03910,S,15300.96010,E,1,05,2.14,-1.3,M,38.5,M,,*6D\x0d\x0a
[23d[M[39d(52) $GPGSA,A,3,13,28,07,30,17,,,,,,,,8.51,2.14,8.24*0D\x0d\x0a
[23d[M[11;18H1
 0[39d(66) $GPGSV,4,1,15,01,19,083,,04,11,113,21,05,05,282,,07,40,082,27*7A\x0d\x0a
[23d[M[14;18H7
20
5[39d(60) $GPGSV,4,2,15,08,,,27,09,16,016,20,10,04,332,15,11,,,27*7B\x0d\x0a
[23d[M[18;18H3
30
6
 0[39d(68) $GPGSV,4,3,15,13,61,257,33,17,50,344,30,19,04,143,26,26,33,228,*7E\x0d\x0a
[23d[M[39d(52) $GPGSV,4,4,15,28,58,207,26,30,63,130,32,31,,,23*7D\x0d\x0a
[23d[M[39d(52) $GPGLL,2730.03910,S,15300.96010,E,020810.00,A,A*7B\x0d\x0a
[23d[M[3;26H1[3;50H97[3;74H2[9;38H1
.03996
04[12;33H1.464[39d(68) $GPRMC,020811.00,A,2730.03996,S,15300.96004,E,1.464,,121214,,,A*6A\x0d\x0a
[23d[M[39d(35) $GPVTG,,T,,M,1.464,N,2.711,K,A*21\x0d\x0a
[23d[M[9;68H1
3996
04[12;66H4[13;74H6[39d(74) $GPGGA,020811.00,2730.03996,S,15300.96004,E,1,06,2.14,-1.4,M,38.5,M,,*63\x0d\x0a
[23d[M[19;34H9 7 30 17
3[39d(54) $GPGSA,A,3,13,28,09,07,30,17,,,,,,,8.51,2.14,8.23*03\x0d\x0a
[23d[M[11;17H30[39d(66) $GPGSV,4,1,16,01,19,083,,04,11,113,30,05,05,282,,07,40,082,27*79\x0d\x0a
[23d[M[15;17H19
 0[39d(58) $GPGSV,4,2,16,08,,,27,09,16,016,19,10,04,332,,11,,,27*76\x0d\x0a
[23d[M[18;18H0

9
23[39d(70) $GPGSV,4,3,16,13,61,257,30,17,50,344,30,19,04,143,29,26,33,228,23*70\x0d\x0a
[23d[M[39d(60) $GPGSV,4,4,16,28,58,207,26,30,63,130,28,31,,,25,32,,,27*77\x0d\x0a
[23d[M[39d(52) $GPGLL,2730.03996,S,15300.96004,E,020811.00,A,A*71\x0d\x0a
[23d[M[3;26H2[3;49H403[3;72H599[9;38H2
.04005
5999[12;33H0.808[39d(68) $GPRMC,020812.00,A,2730.04005,S,15300.95999,E,0.808,,121214,,,A*64\x0d\x0a
[23d[M[39d(35) $GPVTG,,T,,M,0.808,N,1.496,K,A*29\x0d\x0a
[23d[M[9;68H2
4005
5999[12;66H7[13;74H5[39d(74) $GPGGA,020812.00,2730.04005,S,15300.95999,E,1,05,2.14,-1.7,M,38.5,M,,*6A\x0d\x0a
[23d[M[19;34H7 30 17  
[48G0[39d(52) $GPGSA,A,3,13,28,07,30,17,,,,,,,,8.50,2.14,8.23*0B\x0d\x0a
[23d[M[11;17H23

6[39d(66) $GPGSV,4,1,16,01,19,083,,04,11,113,23,05,05,282,,07,40,082,26*7A\x0d\x0a
[23d[M[14;18H6
 0

5[39d(56) $GPGSV,4,2,16,08,,,26,09,16,016,,10,04,332,,11,,,25*7D\x0d\x0a
[23d[M[18;18H2
2
3
1[39d(70) $GPGSV,4,3,16,13,61,257,32,17,50,344,32,19,04,143,23,26,33,228,21*78\x0d\x0a
[23d[M[39d(60) $GPGSV,4,4,16,28,58,207,25,30,63,130,31,31,,,23,32,,,24*79\x0d\x0a
[23d[M[39d(52) $GPGLL,2730.04005,S,15300.95999,E,020812.00,A,A*78\x0d\x0a
[23d[M[3;26H3[3;74H4[9;38H3

[44G1[12;35H450[39d(68) $GPRMC,020813.00,A,2730.04005,S,15300.95991,E,0.450,,121214,,,A*6C\x0d\x0a
[23d[M[39d(35) $GPVTG,,T,,M,0.450,N,0.833,K,A*2A\x0d\x0a
[23d[M[9;68H3

95991[12;66H8[13;74H6[14;66H3[39d(74) $GPGGA,020813.00,2730.04005,S,15300.95991,E,1,06,2.13,-1.8,M,38.5,M,,*68\x0d\x0a
[23d[M[19;39H5 17[20;32H3[39d(54) $GPGSA,A,3,13,28,07,30,05,17,,,,,,,8.50,2.13,8.23*09\x0d\x0a
[23d[M[11;17H 0
21
7[39d(66) $GPGSV,4,1,16,01,19,083,,04,11,113,,05,05,282,21,07,40,082,27*79\x0d\x0a
[23d[M[17;18H6[39d(56) $GPGSV,4,2,16,08,,,26,09,16,016,,10,04,332,,11,,,26*7E\x0d\x0a
[23d[M[20;17H 0
3[39d(68) $GPGSV,4,3,16,13,61,257,32,17,50,344,32,19,04,143,,26,33,228,23*7B\x0d\x0a
[23d[M[39d(60) $GPGSV,4,4,16,28,58,207,26,30,63,130,31,31,,,23,32,,,25*7B\x0d\x0a
[23d[M[39d(52) $GPGLL,2730.04005,S,15300.95991,E,020813.00,A,A*71\x0d\x0a
[23d[M[3;26H4[3;74H0[9;38H4

.95984[12;35H272[39d(68) $GPRMC,020814.00,A,2730.04005,S,15300.95984,E,0.272,,121214,,,A*69\x0d\x0a
[23d[M[39d(35) $GPVTG,,T,,M,0.272,N,0.504,K,A*25\x0d\x0a
[23d[M[9;68H4

95984[12;66H7[39d(74) $GPGGA,020814.00,2730.04005,S,15300.95984,E,1,06,2.13,-1.7,M,38.5,M,,*64\x0d\x0a
[23d[M[19;34H9 7 30
2[39d(54) $GPGSA,A,3,13,28,09,07,30,17,,,,,,,8.50,2.13,8.22*04\x0d\x0a
[23d[M[10;17H24

 0
9[39d(66) $GPGSV,4,1,16,01,19,083,24,04,11,113,,05,05,282,,07,40,082,29*72\x0d\x0a
[23d[M[14;18H5
18

5[39d(58) $GPGSV,4,2,16,08,,,25,09,16,016,18,10,04,332,,11,,,25*77\x0d\x0a
[23d[M[18;18H3

23[39d(70) $GPGSV,4,3,16,13,61,257,33,17,50,344,32,19,04,143,23,26,33,228,23*7B\x0d\x0a
[23d[M[39d(60) $GPGSV,4,4,16,28,58,207,27,30,63,130,32,31,,,24,32,,,31*7B\x0d\x0a
[23d[M[39d(52) $GPGLL,2730.04005,S,15300.95984,E,020814.00,A,A*72\x0d\x0a
[23d[M[3;26H5[3;49H398[3;73H82[9;38H5
.03998
71[12;35H154[39d(68) $GPRMC,020815.00,A,2730.03998,S,15300.95971,E,0.154,,121214,,,A*6F\x0d\x0a
[23d[M[39d(35) $GPVTG,,T,,M,0.154,N,0.285,K,A*2C\x0d\x0a
[23d[M[9;68H5
3998
71[12;66H5[13;74H5[39d(74) $GPGGA,020815.00,2730.03998,S,15300.95971,E,1,05,2.13,-1.5,M,38.5,M,,*64\x0d\x0a
[23d[M[19;34H7 30 17  
[47G49[39d(52) $GPGSA,A,3,13,28,07,30,17,,,,,,,,8.49,2.13,8.22*05\x0d\x0a
[23d[M[39d(66) $GPGSV,4,1,15,01,19,083,24,04,11,113,,05,05,282,,07,40,082,29*71\x0d\x0a
[23d[M[14;18H4


8[39d(58) $GPGSV,4,2,15,08,,,24,09,16,016,18,10,04,332,,11,,,28*78\x0d\x0a
[23d[M[19;18H1
4
4[39d(70) $GPGSV,4,3,15,13,61,257,33,17,50,344,31,19,04,143,24,26,33,228,24*7B\x0d\x0a
[23d[M[39d(52) $GPGSV,4,4,15,28,58,207,27,30,63,130,31,31,,,24*78\x0d\x0a
[23d[M[39d(52) $GPGLL,2730.03998,S,15300.95971,E,020815.00,A,A*73\x0d\x0a
[23d[M[3;26H6[3;73H7[9;38H6

.95954[12;36H97[39d(68) $GPRMC,020816.00,A,2730.03998,S,15300.95954,E,0.197,,121214,,,A*64\x0d\x0a
[23d[M[39d(35) $GPVTG,,T,,M,0.197,N,0.365,K,A*2C\x0d\x0a
[23d[M[9;68H6

95954[12;66H2[13;74H6[39d(74) $GPGGA,020816.00,2730.03998,S,15300.95954,E,1,06,2.13,-1.2,M,38.5,M,,*64\x0d\x0a
[23d[M[19;34H9 7 30 17[39d(54) $GPGSA,A,3,13,28,09,07,30,17,,,,,,,8.49,2.13,8.22*0C\x0d\x0a
[23d[M[13;18H8[39d(66) $GPGSV,4,1,15,01,19,083,24,04,11,113,,05,05,282,,07,40,082,28*70\x0d\x0a
[23d[M[14;18H3
20
22
[7G3 257 61  33[39d(65) $GPGSV,4,2,15,08,,,23,09,16,016,20,10,04,332,22,13,61,257,33*4B\x0d\x0a
[23d[M[18;7H7 344 50  32
[7G9 143  4  2
[6G26 228 33
[7G8 207 58  27[39d(70) $GPGSV,4,3,15,17,50,344,32,19,04,143,21,26,33,228,24,28,58,207,27*7F\x0d\x0a
[23d[M[39d(47) $GPGSV,4,4,15,30,63,130,31,31,,,24,32,,,25*49\x0d\x0a
[23d[M[39d(52) $GPGLL,2730.03998,S,15300.95954,E,020816.00,A,A*77\x0d\x0a
[23d[M[3;26H7[9;38H7

[44G5[12;36H83[39d(68) $GPRMC,020817.00,A,2730.03998,S,15300.95955,E,0.183,,121214,,,A*61\x0d\x0a
[23d[M[39d(35) $GPVTG,,T,,M,0.183,N,0.339,K,A*20\x0d\x0a
[23d[M[9;68H7

95955[12;66H1[13;74H5[39d(74) $GPGGA,020817.00,2730.03998,S,15300.95955,E,1,05,2.13,-1.1,M,38.5,M,,*64\x0d\x0a
[23d[M[19;34H7 30 17  
1[39d(52) $GPGSA,A,3,13,28,07,30,17,,,,,,,,8.49,2.13,8.21*06\x0d\x0a
[23d[M[13;18H9[39d(66) $GPGSV,4,1,16,01,19,083,24,04,11,113,,05,05,282,,07,40,082,29*72\x0d\x0a
[23d[M[15;18H1
 0
[7G1   0  0  28[39d(58) $GPGSV,4,2,16,08,,,23,09,16,016,21,10,04,332,,11,,,28*76\x0d\x0a
[23d[M[18;7H3 257 61  33
[7G7 344 50  32
[6G19 143  4  19
[7G6 228 33  25[39d(70) $GPGSV,4,3,16,13,61,257,33,17,50,344,32,19,04,143,19,26,33,228,25*74\x0d\x0a
[23d[M[39d(60) $GPGSV,4,4,16,28,58,207,28,30,63,130,32,31,,,24,32,,,23*77\x0d\x0a
[23d[M[39d(52) $GPGLL,2730.03998,S,15300.95955,E,020817.00,A,A*77\x0d\x0a
[23d[M[3;26H8[3;51H5[3;74H4[9;38H8
[44G3
7[12;35H094[39d(68) $GPRMC,020818.00,A,2730.03993,S,15300.95957,E,0.094,,121214,,,A*60\x0d\x0a
[23d[M[39d(35) $GPVTG,,T,,M,0.094,N,0.175,K,A*2D\x0d\x0a
[23d[M[9;68H8
3993
7[12;66H0[39d(74) $GPGGA,020818.00,2730.03993,S,15300.95957,E,1,05,2.13,-1.0,M,38.5,M,,*63\x0d\x0a
[23d[M[20;48H8[39d(52) $GPGSA,A,3,13,28,07,30,17,,,,,,,,8.48,2.13,8.21*07\x0d\x0a
[23d[M[10;18H3


8[39d(66) $GPGSV,4,1,16,01,19,083,23,04,11,113,,05,05,282,,07,40,082,28*74\x0d\x0a
[23d[M[14;18H2
19

6[39d(58) $GPGSV,4,2,16,08,,,22,09,16,016,19,10,04,332,,11,,,26*72\x0d\x0a
[23d[M[19;18H1
26
4[39d(70) $GPGSV,4,3,16,13,61,257,33,17,50,344,31,19,04,143,26,26,33,228,24*7A\x0d\x0a
[23d[M[39d(60) $GPGSV,4,4,16,28,58,207,27,30,63,130,31,31,,,23,32,,,22*7D\x0d\x0a
[23d[M[39d(52) $GPGLL,2730.03993,S,15300.95957,E,020818.00,A,A*71\x0d\x0a
[23d[M[3;26H9[3;49H403[9;38H9
.04006[12;36H85[39d(68) $GPRMC,020819.00,A,2730.04006,S,15300.95957,E,0.085,,121214,,,A*63\x0d\x0a
[23d[M[39d(35) $GPVTG,,T,,M,0.085,N,0.158,K,A*22\x0d\x0a
[23d[M[9;68H9
4006[12;66H1[13;74H6[39d(74) $GPGGA,020819.00,2730.04006,S,15300.95957,E,1,06,2.13,-1.1,M,38.5,M,,*62\x0d\x0a
[23d[M[19;34H9 7 30 17[39d(54) $GPGSA,A,3,13,28,09,07,30,17,,,,,,,8.48,2.13,8.21*0E\x0d\x0a
[23d[M[39d(66) $GPGSV,4,1,16,01,19,083,23,04,11,113,,05,05,282,,07,40,082,28*74\x0d\x0a
[23d[M[15;18H7

5[39d(58) $GPGSV,4,2,16,08,,,22,09,16,016,17,10,04,332,,11,,,25*7F\x0d\x0a
[23d[M[20;18H3
5[39d(70) $GPGSV,4,3,16,13,61,257,33,17,50,344,31,19,04,143,23,26,33,228,25*7E\x0d\x0a
[23d[M[39d(60) $GPGSV,4,4,16,28,58,207,27,30,63,130,31,31,,,23,32,,,22*7D\x0d\x0a
[23d[M[39d(52) $GPGLL,2730.04006,S,15300.95957,E,020819.00,A,A*72\x0d\x0a
[23d[M[3;25H20[3;50H24[3;74H2[9;37H20
.04040
5[12;35H402[39d(68) $GPRMC,020820.00,A,2730.04040,S,15300.95955,E,0.402,,121214,,,A*62\x0d\x0a
[23d[M[39d(35) $GPVTG,,T,,M,0.402,N,0.744,K,A*22\x0d\x0a
[23d[M[9;67H20
4040
5[12;66H4

1.86[39d(74) $GPGGA,020820.00,2730.04040,S,15300.95955,E,1,06,1.86,-1.4,M,38.5,M,,*62\x0d\x0a
[23d[M[20;29H1.86 (B[0;1m V=(B[m3.62 (B[0;1m P=(B[m4.07[39d(54) $GPGSA,A,3,13,28,09,07,30,17,,,,,,,4.07,1.86,3.62*0A\x0d\x0a
[23d[M[10;18H4


7[39d(66) $GPGSV,4,1,16,01,19,083,24,04,11,113,,05,05,282,,07,40,082,27*7C\x0d\x0a
[23d[M[17;18H3[39d(58) $GPGSV,4,2,16,08,,,22,09,16,016,17,10,04,332,,11,,,23*79\x0d\x0a
[23d[M[18;18H2
4
1
4[39d(70) $GPGSV,4,3,16,13,61,257,32,17,50,344,34,19,04,143,21,26,33,228,24*79\x0d\x0a
[23d[M[39d(60) $GPGSV,4,4,16,28,58,207,26,30,63,130,31,31,,,24,32,,,23*7A\x0d\x0a
[23d[M[39d(52) $GPGLL,2730.04040,S,15300.95955,E,020820.00,A,A*78\x0d\x0a
[23d[M[3;26H1[3;50H3[3;74H3[9;38H1
.04058
6[12;35H143[39d(68) $GPRMC,020821.00,A,2730.04058,S,15300.95956,E,0.143,,121214,,,A*69\x0d\x0a
[23d[M[39d(35) $GPVTG,,T,,M,0.143,N,0.265,K,A*24\x0d\x0a
[23d[M[9;68H1
4058
6[12;66H9[39d(74) $GPGGA,020821.00,2730.04058,S,15300.95956,E,1,06,1.86,-1.9,M,38.5,M,,*64\x0d\x0a
[23d[M[20;48H6[39d(54) $GPGSA,A,3,13,28,09,07,30,17,,,,,,,4.06,1.86,3.62*0B\x0d\x0a
[23d[M[13;18H8[39d(66) $GPGSV,4,1,16,01,19,083,24,04,11,113,,05,05,282,,07,40,082,28*73\x0d\x0a
[23d[M[14;18H3
8

8[39d(58) $GPGSV,4,2,16,08,,,23,09,16,016,18,10,04,332,,11,,,28*7C\x0d\x0a
[23d[M[18;18H3
3
 0
5[39d(68) $GPGSV,4,3,16,13,61,257,33,17,50,344,33,19,04,143,,26,33,228,25*7D\x0d\x0a
[23d[M[39d(60) $GPGSV,4,4,16,28,58,207,27,30,63,130,31,31,,,24,32,,,23*7B\x0d\x0a
[23d[M[39d(52) $GPGLL,2730.04058,S,15300.95956,E,020821.00,A,A*73\x0d\x0a
[23d[M[3;26H2[3;73H69[9;38H2

.95949[12;35H031[39d(68) $GPRMC,020822.00,A,2730.04058,S,15300.95949,E,0.031,,121214,,,A*60\x0d\x0a
[23d[M[39d(35) $GPVTG,,T,,M,0.031,N,0.057,K,A*23\x0d\x0a
[23d[M[9;68H2

95949[12;66H7[39d(74) $GPGGA,020822.00,2730.04058,S,15300.95949,E,1,06,1.86,-1.7,M,38.5,M,,*67\x0d\x0a
[23d[M[20;40H1[39d(54) $GPGSA,A,3,13,28,09,07,30,17,,,,,,,4.06,1.86,3.61*08\x0d\x0a
[23d[M[10;18H5


7[39d(66) $GPGSV,4,1,16,01,19,083,25,04,11,113,,05,05,282,,07,40,082,27*7D\x0d\x0a
[23d[M[14;18H5
9
24
6[39d(60) $GPGSV,4,2,16,08,,,25,09,16,016,19,10,04,332,24,11,,,26*73\x0d\x0a
[23d[M[39d(68) $GPGSV,4,3,16,13,61,257,33,17,50,344,33,19,04,143,,26,33,228,25*7D\x0d\x0a
[23d[M[39d(60) $GPGSV,4,4,16,28,58,207,27,30,63,130,31,31,,,24,32,,,23*7B\x0d\x0a
[23d[M[39d(52) $GPGLL,2730.04058,S,15300.95949,E,020822.00,A,A*7E\x0d\x0a
[23d[M[3;26H3[3;51H3[3;74H5[9;38H3
[44G6
2[12;36H88[39d(68) $GPRMC,020823.00,A,2730.04056,S,15300.95942,E,0.088,,121214,,,A*66\x0d\x0a
[23d[M[39d(35) $GPVTG,,T,,M,0.088,N,0.163,K,A*27\x0d\x0a
[23d[M[9;68H3
4056
2[12;66H4[39d(74) $GPGGA,020823.00,2730.04056,S,15300.95942,E,1,06,1.86,-1.4,M,38.5,M,,*60\x0d\x0a
[23d[M[39d(54) $GPGSA,A,3,13,28,09,07,30,17,,,,,,,4.06,1.86,3.61*08\x0d\x0a
[23d[M[13;18H8[39d(66) $GPGSV,4,1,16,01,19,083,25,04,11,113,,05,05,282,,07,40,082,28*72\x0d\x0a
[23d[M[14;18H4

 0
5[39d(58) $GPGSV,4,2,16,08,,,24,09,16,016,19,10,04,332,,11,,,25*77\x0d\x0a
[23d[M[18;18H4
2
17[39d(70) $GPGSV,4,3,16,13,61,257,34,17,50,344,32,19,04,143,17,26,33,228,25*7D\x0d\x0a
[23d[M[39d(60) $GPGSV,4,4,16,28,58,207,27,30,63,130,31,31,,,23,32,,,22*7D\x0d\x0a
[23d[M[39d(52) $GPGLL,2730.04056,S,15300.95942,E,020823.00,A,A*7A\x0d\x0a
[23d[M[3;26H4[3;50H29[9;38H4
.04049
3[12;36H52[39d(68) $GPRMC,020824.00,A,2730.04049,S,15300.95943,E,0.052,,121214,,,A*69\x0d\x0a
[23d[M[39d(35) $GPVTG,,T,,M,0.052,N,0.096,K,A*2B\x0d\x0a
[23d[M[9;68H4
4049
3[12;66H3

2.13[39d(74) $GPGGA,020824.00,2730.04049,S,15300.95943,E,1,06,2.13,-1.3,M,38.5,M,,*60\x0d\x0a
[23d[M[20;29H2.13 (B[0;1m V=(B[m8.19 (B[0;1m P=(B[m8.4[39d(54) $GPGSA,A,3,13,28,09,07,30,17,,,,,,,8.46,2.13,8.19*0B\x0d\x0a
[23d[M[39d(66) $GPGSV,4,1,16,01,19,083,25,04,11,113,,05,05,282,,07,40,082,28*72\x0d\x0a
[23d[M[14;18H3
20

4[39d(58) $GPGSV,4,2,16,08,,,23,09,16,016,20,10,04,332,,11,,,24*7B\x0d\x0a
[23d[M[18;18H3
3
 0[39d(68) $GPGSV,4,3,16,13,61,257,33,17,50,344,33,19,04,143,,26,33,228,25*7D\x0d\x0a
[23d[M[39d(60) $GPGSV,4,4,16,28,58,207,27,30,63,130,31,31,,,23,32,,,22*7D\x0d\x0a
[23d[M[39d(52) $GPGLL,2730.04049,S,15300.95943,E,020824.00,A,A*72\x0d\x0a
[23d[M[3;26H5[3;50H31[3;74H6[9;38H5
.04053
5[12;36H30[39d(68) $GPRMC,020825.00,A,2730.04053,S,15300.95945,E,0.030,,121214,,,A*61\x0d\x0a
[23d[M[39d(35) $GPVTG,,T,,M,0.030,N,0.056,K,A*23\x0d\x0a
[23d[M[9;68H5
4053
5[12;66H5[13;74H5[39d(74) $GPGGA,020825.00,2730.04053,S,15300.95945,E,1,05,2.13,-1.5,M,38.5,M,,*69\x0d\x0a
[23d[M[19;34H7 30 17  [39d(52) $GPGSA,A,3,13,28,07,30,17,,,,,,,,8.46,2.13,8.19*02\x0d\x0a
[23d[M[10;18H4[39d(66) $GPGSV,4,1,16,01,19,083,24,04,11,113,,05,05,282,,07,40,082,28*73\x0d\x0a
[23d[M[15;17H19

3[39d(58) $GPGSV,4,2,16,08,,,23,09,16,016,19,10,04,332,,11,,,23*76\x0d\x0a
[23d[M[20;17H15
6[39d(70) $GPGSV,4,3,16,13,61,257,33,17,50,344,33,19,04,143,15,26,33,228,26*7A\x0d\x0a
[23d[M[39d(60) $GPGSV,4,4,16,28,58,207,27,30,63,130,31,31,,,23,32,,,22*7D\x0d\x0a
[23d[M[39d(52) $GPGLL,2730.04053,S,15300.95945,E,020825.00,A,A*7E\x0d\x0a
[23d[M[3;26H6[3;51H2[3;74H5[9;38H6
[44G4
2[12;36H61[39d(68) $GPRMC,020826.00,A,2730.04054,S,15300.95942,E,0.061,,121214,,,A*66\x0d\x0a
[23d[M[39d(35) $GPVTG,,T,,M,0.061,N,0.112,K,A*26\x0d\x0a
[23d[M[9;68H6
4054
2[12;66H4[13;74H6[39d(74) $GPGGA,020826.00,2730.04054,S,15300.95942,E,1,06,2.13,-1.4,M,38.5,M,,*68\x0d\x0a
[23d[M[19;34H9 7 30 17
8[39d(54) $GPGSA,A,3,13,28,09,07,30,17,,,,,,,8.46,2.13,8.18*0A\x0d\x0a
[23d[M[13;18H7[39d(66) $GPGSV,4,1,16,01,19,083,24,04,11,113,,05,05,282,,07,40,082,27*7C\x0d\x0a
[23d[M[14;18H2
8

2[39d(58) $GPGSV,4,2,16,08,,,22,09,16,016,18,10,04,332,,11,,,22*77\x0d\x0a
[23d[M[18;18H2
1
 0
5[39d(68) $GPGSV,4,3,16,13,61,257,32,17,50,344,31,19,04,143,,26,33,228,25*7E\x0d\x0a
[23d[M[39d(60) $GPGSV,4,4,16,28,58,207,27,30,63,130,31,31,,,22,32,,,21*7F\x0d\x0a
[23d[M[39d(52) $GPGLL,2730.04054,S,15300.95942,E,020826.00,A,A*7D\x0d\x0a
[23d[M[3;26H7[3;51H1[3;73H70[9;38H7
[44G3
50[12;35H164[39d(68) $GPRMC,020827.00,A,2730.04053,S,15300.95950,E,0.164,,121214,,,A*67\x0d\x0a
[23d[M[39d(35) $GPVTG,,T,,M,0.164,N,0.305,K,A*26\x0d\x0a
[23d[M[9;68H7
4053
50[14;63H1.86[39d(74) $GPGGA,020827.00,2730.04053,S,15300.95950,E,1,06,1.86,-1.4,M,38.5,M,,*62\x0d\x0a
[23d[M[20;29H1.86 (B[0;1m V=(B[m3.61 (B[0;1m P=(B[m4.0[39d(54) $GPGSA,A,3,13,28,09,07,30,17,,,,,,,4.06,1.86,3.61*08\x0d\x0a
[23d[M[39d(66) $GPGSV,4,1,16,01,19,083,24,04,11,113,,05,05,282,,07,40,082,27*7C\x0d\x0a
[23d[M[14;18H7
9

3[39d(58) $GPGSV,4,2,16,08,,,27,09,16,016,19,10,04,332,,11,,,23*72\x0d\x0a
[23d[M[19;18H2
19[39d(70) $GPGSV,4,3,16,13,61,257,32,17,50,344,32,19,04,143,19,26,33,228,25*75\x0d\x0a
[23d[M[39d(60) $GPGSV,4,4,16,28,58,207,26,30,63,130,31,31,,,22,32,,,21*7E\x0d\x0a
[23d[M[39d(52) $GPGLL,2730.04053,S,15300.95950,E,020827.00,A,A*78\x0d\x0a
[23d[M[3;26H8[3;51H0[3;74H2[9;38H8
[44G1
4[12;36H95[39d(68) $GPRMC,020828.00,A,2730.04051,S,15300.95954,E,0.195,,121214,,,A*60\x0d\x0a
[23d[M[39d(35) $GPVTG,,T,,M,0.195,N,0.362,K,A*29\x0d\x0a
[23d[M[9;68H8
4051
4[12;66H9[39d(74) $GPGGA,020828.00,2730.04051,S,15300.95954,E,1,06,1.86,-1.9,M,38.5,M,,*66\x0d\x0a
[23d[M[20;40H0[48G5[39d(54) $GPGSA,A,3,13,28,09,07,30,17,,,,,,,4.05,1.86,3.60*0A\x0d\x0a
[23d[M[10;18H5


8[39d(66) $GPGSV,4,1,16,01,19,083,25,04,11,113,,05,05,282,,07,40,082,28*72\x0d\x0a
[23d[M[14;18H5


2[39d(58) $GPGSV,4,2,16,08,,,25,09,16,016,19,10,04,332,,11,,,22*71\x0d\x0a
[23d[M[20;18H7
4[39d(70) $GPGSV,4,3,16,13,61,257,32,17,50,344,32,19,04,143,17,26,33,228,24*7A\x0d\x0a
[23d[M[39d(60) $GPGSV,4,4,16,28,58,207,26,30,63,130,30,31,,,22,32,,,21*7F\x0d\x0a
[23d[M[39d(52) $GPGLL,2730.04051,S,15300.95954,E,020828.00,A,A*71\x0d\x0a
[23d[M[3;26H9[3;74H5[9;38H9
[44G0
60[12;36H3[39d(68) $GPRMC,020829.00,A,2730.04050,S,15300.95960,E,0.135,,121214,,,A*6D\x0d\x0a
[23d[M[39d(35) $GPVTG,,T,,M,0.135,N,0.250,K,A*23\x0d\x0a
[23d[M[9;68H9
4050
60[12;64H2.1[39d(74) $GPGGA,020829.00,2730.04050,S,15300.95960,E,1,06,1.86,-2.1,M,38.5,M,,*6A\x0d\x0a
[23d[M[39d(54) $GPGSA,A,3,13,28,09,07,30,17,,,,,,,4.05,1.86,3.60*0A\x0d\x0a
[23d[M[39d(66) $GPGSV,4,1,16,01,19,083,25,04,11,113,,05,05,282,,07,40,082,28*72\x0d\x0a
[23d[M[17;18H3[39d(58) $GPGSV,4,2,16,08,,,25,09,16,016,19,10,04,332,,11,,,23*70\x0d\x0a
[23d[M[20;18H8
5[39d(70) $GPGSV,4,3,16,13,61,257,32,17,50,344,32,19,04,143,18,26,33,228,25*74\x0d\x0a
[23d[M[39d(60) $GPGSV,4,4,16,28,58,207,27,30,63,130,31,31,,,23,32,,,22*7D\x0d\x0a
[23d[M[39d(52) $GPGLL,2730.04050,S,15300.95960,E,020829.00,A,A*76\x0d\x0a
[23d[M[3;25H30[3;50H24[3;74H8[9;37H30
.0404
4[12;36H60[39d(68) $GPRMC,020830.00,A,2730.04040,S,15300.95964,E,0.160,,121214,,,A*60\x0d\x0a
[23d[M[39d(35) $GPVTG,,T,,M,0.160,N,0.296,K,A*29\x0d\x0a
[23d[M[9;67H30
404
64[12;66H0[39d(74) $GPGGA,020830.00,2730.04040,S,15300.95964,E,1,06,1.86,-2.0,M,38.5,M,,*66\x0d\x0a
[23d[M[39d(54) $GPGSA,A,3,13,28,09,07,30,17,,,,,,,4.05,1.86,3.60*0A\x0d\x0a
[23d[M[10;18H4[39d(66) $GPGSV,4,1,16,01,19,083,24,04,11,113,,05,05,282,,07,40,082,28*73\x0d\x0a
[23d[M[14;18H4
8

5[39d(58) $GPGSV,4,2,16,08,,,24,09,16,016,18,10,04,332,,11,,,25*76\x0d\x0a
[23d[M[18;18H1
1
21
4[39d(70) $GPGSV,4,3,16,13,61,257,31,17,50,344,31,19,04,143,21,26,33,228,24*7F\x0d\x0a
[23d[M[39d(60) $GPGSV,4,4,16,28,58,207,26,30,63,130,31,31,,,23,32,,,24*7A\x0d\x0a
[23d[M[39d(52) $GPGLL,2730.04040,S,15300.95964,E,020830.00,A,A*7B\x0d\x0a
[23d[M[3;26H1[3;50H50[3;73H67[9;38H1
.04084
46[12;35H878[39d(68) $GPRMC,020831.00,A,2730.04084,S,15300.95946,E,0.878,,121214,,,A*69\x0d\x0a
[23d[M[39d(35) $GPVTG,,T,,M,0.878,N,1.626,K,A*27\x0d\x0a
[23d[M[9;68H1
4084
46[12;66H4[39d(74) $GPGGA,020831.00,2730.04084,S,15300.95946,E,1,06,1.86,-2.4,M,38.5,M,,*6B\x0d\x0a
[23d[M[39d(54) $GPGSA,A,3,13,28,09,07,30,17,,,,,,,4.05,1.86,3.60*0A\x0d\x0a
[23d[M[10;18H3


1[39d(66) $GPGSV,4,1,16,01,19,083,23,04,11,113,,05,05,282,,07,40,082,21*7D\x0d\x0a
[23d[M[14;18H5
9

6[39d(58) $GPGSV,4,2,16,08,,,25,09,16,016,19,10,04,332,,11,,,26*75\x0d\x0a
[23d[M[18;18H2
28
 0[39d(68) $GPGSV,4,3,16,13,61,257,32,17,50,344,28,19,04,143,,26,33,228,24*77\x0d\x0a
[23d[M[39d(60) $GPGSV,4,4,16,28,58,207,26,30,63,130,32,31,,,25,32,,,26*7D\x0d\x0a
[23d[M[39d(52) $GPGLL,2730.04084,S,15300.95946,E,020831.00,A,A*72\x0d\x0a
[23d[M[3;26H2[3;50H46[3;74H6[9;38H2
.04078
5[12;35H425[39d(68) $GPRMC,020832.00,A,2730.04078,S,15300.95945,E,0.425,,121214,,,A*6E\x0d\x0a
[23d[M[39d(35) $GPVTG,,T,,M,0.425,N,0.788,K,A*27\x0d\x0a
[23d[M[9;68H2
4078
5[12;66H5[39d(74) $GPGGA,020832.00,2730.04078,S,15300.95945,E,1,06,1.86,-2.5,M,38.5,M,,*69\x0d\x0a
[23d[M[39d(54) $GPGSA,A,3,13,28,09,07,30,17,,,,,,,4.05,1.86,3.60*0A\x0d\x0a
[23d[M[10;18H4


9[39d(66) $GPGSV,4,1,16,01,19,083,24,04,11,113,,05,05,282,,07,40,082,29*72\x0d\x0a
[23d[M[15;17H20

7[39d(58) $GPGSV,4,2,16,08,,,25,09,16,016,20,10,04,332,,11,,,27*7E\x0d\x0a
[23d[M[19;17H32
22[39d(70) $GPGSV,4,3,16,13,61,257,32,17,50,344,32,19,04,143,22,26,33,228,24*7C\x0d\x0a
[23d[M[39d(60) $GPGSV,4,4,16,28,58,207,27,30,63,130,32,31,,,24,32,,,25*7E\x0d\x0a
[23d[M[39d(52) $GPGLL,2730.04078,S,15300.95945,E,020832.00,A,A*71\x0d\x0a
[23d[M[3;26H3[3;51H3[3;74H8[9;38H3
[44G3
7[12;35H221[39d(68) $GPRMC,020833.00,A,2730.04073,S,15300.95947,E,0.221,,121214,,,A*64\x0d\x0a
[23d[M[39d(35) $GPVTG,,T,,M,0.221,N,0.409,K,A*2F\x0d\x0a
[23d[M[9;68H3
4073
7[12;66H6

5[39d(74) $GPGGA,020833.00,2730.04073,S,15300.95947,E,1,06,1.85,-2.6,M,38.5,M,,*61\x0d\x0a
[23d[M[20;32H5[39d(54) $GPGSA,A,3,13,28,09,07,30,17,,,,,,,4.05,1.85,3.60*09\x0d\x0a
[23d[M[10;17H 0


8[39d(64) $GPGSV,4,1,16,01,19,083,,04,11,113,,05,05,282,,07,40,082,28*75\x0d\x0a
[23d[M[14;18H4[39d(58) $GPGSV,4,2,16,08,,,24,09,16,016,20,10,04,332,,11,,,27*7F\x0d\x0a
[23d[M[18;18H3
3
 0
2[39d(68) $GPGSV,4,3,16,13,61,257,33,17,50,344,33,19,04,143,,26,33,228,22*7A\x0d\x0a
[23d[M[39d(60) $GPGSV,4,4,16,28,58,207,26,30,63,130,32,31,,,24,32,,,25*7F\x0d\x0a
[23d[M[39d(52) $GPGLL,2730.04073,S,15300.95947,E,020833.00,A,A*79\x0d\x0a
[23d[M[3;26H4[3;51H9[3;74H6[9;38H4
.0408
4[12;35H566[39d(68) $GPRMC,020834.00,A,2730.04083,S,15300.95944,E,0.566,,121214,,,A*6B\x0d\x0a
[23d[M[39d(35) $GPVTG,,T,,M,0.566,N,1.048,K,A*2B\x0d\x0a
[23d[M[9;68H4
408
44[12;64H1.5[39d(74) $GPGGA,020834.00,2730.04083,S,15300.95944,E,1,06,1.85,-1.5,M,38.5,M,,*6A\x0d\x0a
[23d[M[39d(54) $GPGSA,A,3,13,28,09,07,30,17,,,,,,,4.05,1.85,3.60*09\x0d\x0a
[23d[M[39d(64) $GPGSV,4,1,16,01,19,083,,04,11,113,,05,05,282,,07,40,082,28*75\x0d\x0a
[23d[M[15;18H1
25
6[39d(60) $GPGSV,4,2,16,08,,,24,09,16,016,21,10,04,332,25,11,,,26*78\x0d\x0a
[23d[M[21;17H 0[39d(66) $GPGSV,4,3,16,13,61,257,33,17,50,344,33,19,04,143,,26,33,228,*7A\x0d\x0a
[23d[M[39d(60) $GPGSV,4,4,16,28,58,207,27,30,63,130,32,31,,,24,32,,,25*7E\x0d\x0a
[23d[M[39d(52) $GPGLL,2730.04083,S,15300.95944,E,020834.00,A,A*72\x0d\x0a
[23d[M[3;26H5[3;51H8[3;74H5[9;38H5
[44G1
3[12;35H294[39d(68) $GPRMC,020835.00,A,2730.04081,S,15300.95943,E,0.294,,121214,,,A*65\x0d\x0a
[23d[M[39d(35) $GPVTG,,T,,M,0.294,N,0.544,K,A*29\x0d\x0a
[23d[M[9;68H5
4081
3[12;66H7[39d(74) $GPGGA,020835.00,2730.04081,S,15300.95943,E,1,06,1.85,-1.7,M,38.5,M,,*6C\x0d\x0a
[23d[M[20;39H59[48G4[39d(54) $GPGSA,A,3,13,28,09,07,30,17,,,,,,,4.04,1.85,3.59*02\x0d\x0a
[23d[M[10;17H17


7[39d(66) $GPGSV,4,1,16,01,19,083,17,04,11,113,,05,05,282,,07,40,082,27*7C\x0d\x0a
[23d[M[14;18H2
19
3
4[39d(60) $GPGSV,4,2,16,08,,,22,09,16,016,19,10,04,332,23,11,,,24*71\x0d\x0a
[23d[M[18;18H2
1
16
15[39d(70) $GPGSV,4,3,16,13,61,257,32,17,50,344,31,19,04,143,16,26,33,228,15*7A\x0d\x0a
[23d[M[39d(60) $GPGSV,4,4,16,28,58,207,26,30,63,130,31,31,,,23,32,,,22*7C\x0d\x0a
[23d[M[39d(52) $GPGLL,2730.04081,S,15300.95943,E,020835.00,A,A*76\x0d\x0a
[23d[M[3;26H6[3;50H50[3;74H3[9;38H6
[44G4
39[12;36H02[39d(68) $GPRMC,020836.00,A,2730.04084,S,15300.95939,E,0.202,,121214,,,A*61\x0d\x0a
[23d[M[39d(35) $GPVTG,,T,,M,0.202,N,0.373,K,A*24\x0d\x0a
[23d[M[9;68H6
4084
39[12;66H8[39d(74) $GPGGA,020836.00,2730.04084,S,15300.95939,E,1,06,1.85,-1.8,M,38.5,M,,*68\x0d\x0a
[23d[M[39d(54) $GPGSA,A,3,13,28,09,07,30,17,,,,,,,4.04,1.85,3.59*02\x0d\x0a
[23d[M[10;18H5[39d(66) $GPGSV,4,1,16,01,19,083,15,04,11,113,,05,05,282,,07,40,082,27*7E\x0d\x0a
[23d[M[16;18H4[39d(60) $GPGSV,4,2,16,08,,,22,09,16,016,19,10,04,332,24,11,,,24*76\x0d\x0a
[23d[M[18;18H1

 0
24[39d(68) $GPGSV,4,3,16,13,61,257,31,17,50,344,31,19,04,143,,26,33,228,24*7C\x0d\x0a
[23d[M[39d(60) $GPGSV,4,4,16,28,58,207,26,30,63,130,31,31,,,23,32,,,22*7C\x0d\x0a
[23d[M[39d(52) $GPGLL,2730.04084,S,15300.95939,E,020836.00,A,A*7D\x0d\x0a
[23d[M[3;26H7[3;50H42[3;73H58[9;38H7
.04071
1[12;35H113[39d(68) $GPRMC,020837.00,A,2730.04071,S,15300.95931,E,0.113,,121214,,,A*61\x0d\x0a
[23d[M[39d(35) $GPVTG,,T,,M,0.113,N,0.209,K,A*2B\x0d\x0a
[23d[M[9;68H7
4071
1[12;66H6[39d(74) $GPGGA,020837.00,2730.04071,S,15300.95931,E,1,06,1.85,-1.6,M,38.5,M,,*65\x0d\x0a
[23d[M[39d(54) $GPGSA,A,3,13,28,09,07,30,17,,,,,,,4.04,1.85,3.59*02\x0d\x0a
[23d[M[10;17H 0


8[39d(64) $GPGSV,4,1,16,01,19,083,,04,11,113,,05,05,282,,07,40,082,28*75\x0d\x0a
[23d[M[14;18H4
20
2
5[39d(60) $GPGSV,4,2,16,08,,,24,09,16,016,20,10,04,332,22,11,,,25*7D\x0d\x0a
[23d[M[18;18H3
2[39d(68) $GPGSV,4,3,16,13,61,257,33,17,50,344,32,19,04,143,,26,33,228,24*7D\x0d\x0a
[23d[M[39d(60) $GPGSV,4,4,16,28,58,207,28,30,63,130,32,31,,,24,32,,,24*70\x0d\x0a
[23d[M[39d(52) $GPGLL,2730.04071,S,15300.95931,E,020837.00,A,A*7E\x0d\x0a
[23d[M[3;26H8[3;50H39[3;74H5[9;38H8
.04066
26[12;35H099[39d(68) $GPRMC,020838.00,A,2730.04066,S,15300.95926,E,0.099,,121214,,,A*6D\x0d\x0a
[23d[M[39d(35) $GPVTG,,T,,M,0.099,N,0.183,K,A*29\x0d\x0a
[23d[M[9;68H8
4066
26[12;66H5

2.13[39d(74) $GPGGA,020838.00,2730.04066,S,15300.95926,E,1,06,2.13,-1.5,M,38.5,M,,*65\x0d\x0a
[23d[M[20;29H2.13 (B[0;1m V=(B[m8.14 (B[0;1m P=(B[m8.42[39d(54) $GPGSA,A,3,13,28,09,07,30,17,,,,,,,8.42,2.13,8.14*02\x0d\x0a
[23d[M[39d(64) $GPGSV,4,1,16,01,19,083,,04,11,113,,05,05,282,,07,40,082,28*75\x0d\x0a
[23d[M[14;18H3
2
17
4[39d(60) $GPGSV,4,2,16,08,,,23,09,16,016,22,10,04,332,17,11,,,24*7F\x0d\x0a
[23d[M[18;17H29
1
18
3[39d(70) $GPGSV,4,3,16,13,61,257,29,17,50,344,31,19,04,143,18,26,33,228,23*7B\x0d\x0a
[23d[M[39d(60) $GPGSV,4,4,16,28,58,207,27,30,63,130,31,31,,,25,32,,,23*7A\x0d\x0a
[23d[M[39d(52) $GPGLL,2730.04066,S,15300.95926,E,020838.00,A,A*71\x0d\x0a
[23d[M[3;26H9[3;51H5[9;38H9
[44G0[12;36H55[39d(68) $GPRMC,020839.00,A,2730.04060,S,15300.95926,E,0.055,,121214,,,A*6A\x0d\x0a
[23d[M[39d(35) $GPVTG,,T,,M,0.055,N,0.101,K,A*23\x0d\x0a
[23d[M[9;68H9
4060


05[14;66H2[39d(74) $GPGGA,020839.00,2730.04060,S,15300.95926,E,1,05,2.12,-1.5,M,38.5,M,,*60\x0d\x0a
[23d[M[19;34H7 30 17  [20;32H2[20;48H1[39d(52) $GPGSA,A,3,13,28,07,30,17,,,,,,,,8.41,2.12,8.14*09\x0d\x0a
[23d[M[13;18H7[39d(64) $GPGSV,4,1,16,01,19,083,,04,11,113,,05,05,282,,07,40,082,27*7A\x0d\x0a
[23d[M[14;18H8

 0
2[39d(58) $GPGSV,4,2,16,08,,,28,09,16,016,22,10,04,332,,11,,,22*74\x0d\x0a
[23d[M[18;17H30

 0[39d(68) $GPGSV,4,3,16,13,61,257,30,17,50,344,31,19,04,143,,26,33,228,23*7A\x0d\x0a
[23d[M[39d(60) $GPGSV,4,4,16,28,58,207,26,30,63,129,30,31,,,26,32,,,22*70\x0d\x0a
[23d[M[39d(52) $GPGLL,2730.04060,S,15300.95926,E,020839.00,A,A*76\x0d\x0a
[23d[M[3;25H40[3;51H2[3;74H2[9;37H40
.04055
1[12;36H46[39d(68) $GPRMC,020840.00,A,2730.04055,S,15300.95921,E,0.046,,121214,,,A*67\x0d\x0a
[23d[M[39d(35) $GPVTG,,T,,M,0.046,N,0.086,K,A*2F\x0d\x0a
[23d[M[9;67H40
4055
1[12;66H4[39d(74) $GPGGA,020840.00,2730.04055,S,15300.95921,E,1,05,2.12,-1.4,M,38.5,M,,*6E\x0d\x0a
[23d[M[39d(52) $GPGSA,A,3,13,28,07,30,17,,,,,,,,8.41,2.12,8.14*09\x0d\x0a
[23d[M[10;17H22

22[39d(68) $GPGSV,4,1,16,01,19,083,22,04,11,113,,05,05,282,22,07,40,082,27*7A\x0d\x0a
[23d[M[15;17H 0[39d(56) $GPGSV,4,2,16,08,,,28,09,16,016,,10,04,332,,11,,,22*74\x0d\x0a
[23d[M[18;18H1


4[39d(68) $GPGSV,4,3,16,13,61,257,31,17,50,344,31,19,04,143,,26,33,228,24*7C\x0d\x0a
[23d[M[39d(60) $GPGSV,4,4,16,28,58,207,26,30,63,129,31,31,,,26,32,,,22*71\x0d\x0a
[23d[M[39d(52) $GPGLL,2730.04055,S,15300.95921,E,020840.00,A,A*79\x0d\x0a
[23d[M[3;26H1[3;51H1[3;73H43[9;38H1
[44G3
06[12;35H123[39d(68) $GPRMC,020841.00,A,2730.04053,S,15300.95906,E,0.123,,121214,,,A*67\x0d\x0a
[23d[M[39d(35) $GPVTG,,T,,M,0.123,N,0.227,K,A*24\x0d\x0a
[23d[M[9;68H1
4053
06[12;66H5[39d(74) $GPGGA,020841.00,2730.04053,S,15300.95906,E,1,05,2.12,-1.5,M,38.5,M,,*6D\x0d\x0a
[23d[M[20;40H3[39d(52) $GPGSA,A,3,13,28,07,30,17,,,,,,,,8.41,2.12,8.13*0E\x0d\x0a
[23d[M[10;17H19

 0
8[39d(66) $GPGSV,4,1,16,01,19,083,19,04,11,113,,05,05,282,,07,40,082,28*7D\x0d\x0a
[23d[M[15;17H24

3[39d(58) $GPGSV,4,2,16,08,,,28,09,16,016,24,10,04,332,,11,,,23*73\x0d\x0a
[23d[M[18;18H4

23
5[39d(70) $GPGSV,4,3,16,13,61,257,34,17,50,344,31,19,04,143,23,26,33,228,25*79\x0d\x0a
[23d[M[39d(60) $GPGSV,4,4,16,28,58,207,27,30,63,129,31,31,,,26,32,,,22*70\x0d\x0a
[23d[M[39d(52) $GPGLL,2730.04053,S,15300.95906,E,020841.00,A,A*7B\x0d\x0a
[23d[M[3;26H2[3;51H2[3;74H1[9;38H2
[44G4
2[12;35H057[39d(68) $GPRMC,020842.00,A,2730.04054,S,15300.95902,E,0.057,,121214,,,A*65\x0d\x0a
[23d[M[39d(35) $GPVTG,,T,,M,0.057,N,0.106,K,A*26\x0d\x0a
[23d[M[9;68H2
4054
2[12;66H6[39d(74) $GPGGA,020842.00,2730.04054,S,15300.95902,E,1,05,2.12,-1.6,M,38.5,M,,*6E\x0d\x0a
[23d[M[20;48H0[39d(52) $GPGSA,A,3,13,28,07,30,17,,,,,,,,8.40,2.12,8.13*0F\x0d\x0a
[23d[M[10;18H3


7[39d(66) $GPGSV,4,1,16,01,19,083,13,04,11,113,,05,05,282,,07,40,082,27*78\x0d\x0a
[23d[M[14;18H4
19

2[39d(58) $GPGSV,4,2,16,08,,,24,09,16,016,19,10,04,332,,11,,,22*70\x0d\x0a
[23d[M[18;18H2

18
4[39d(70) $GPGSV,4,3,16,13,61,257,32,17,50,344,31,19,04,143,18,26,33,228,24*76\x0d\x0a
[23d[M[39d(60) $GPGSV,4,4,16,28,58,207,27,30,63,129,30,31,,,24,32,,,21*70\x0d\x0a
[23d[M[39d(52) $GPGLL,2730.04054,S,15300.95902,E,020842.00,A,A*7B\x0d\x0a
[23d[M[3;26H3[3;50H29[3;73H37[9;38H3
.04049
896[12;36H90[39d(68) $GPRMC,020843.00,A,2730.04049,S,15300.95896,E,0.090,,121214,,,A*6F\x0d\x0a
[23d[M[39d(35) $GPVTG,,T,,M,0.090,N,0.167,K,A*2A\x0d\x0a
[23d[M[9;68H3
4049
896

6[39d(74) $GPGGA,020843.00,2730.04049,S,15300.95896,E,1,06,2.12,-1.6,M,38.5,M,,*6C\x0d\x0a
[23d[M[19;34H9 7 30 17[39d(54) $GPGSA,A,3,13,28,09,07,30,17,,,,,,,8.40,2.12,8.13*06\x0d\x0a
[23d[M[10;17H 0


8[39d(64) $GPGSV,4,1,16,01,19,083,,04,11,113,,05,05,282,,07,40,082,28*75\x0d\x0a
[23d[M[14;18H6
22[39d(58) $GPGSV,4,2,16,08,,,26,09,16,016,22,10,04,332,,11,,,22*7A\x0d\x0a
[23d[M[20;18H5[39d(70) $GPGSV,4,3,16,13,61,257,32,17,50,344,31,19,04,143,15,26,33,228,24*7B\x0d\x0a
[23d[M[39d(60) $GPGSV,4,4,16,28,58,207,27,30,63,129,31,31,,,25,32,,,19*7B\x0d\x0a
[23d[M[39d(52) $GPGLL,2730.04049,S,15300.95896,E,020843.00,A,A*7A\x0d\x0a
[23d[M[3;26H4[3;51H5[9;38H4
[44G2
5[12;36H58[39d(68) $GPRMC,020844.00,A,2730.04042,S,15300.95895,E,0.058,,121214,,,A*64\x0d\x0a
[23d[M[39d(35) $GPVTG,,T,,M,0.058,N,0.108,K,A*27\x0d\x0a
[23d[M[9;68H4
4042
5[12;66H4[39d(74) $GPGGA,020844.00,2730.04042,S,15300.95895,E,1,06,2.12,-1.4,M,38.5,M,,*61\x0d\x0a
[23d[M[20;40H2[39d(54) $GPGSA,A,3,13,28,09,07,30,17,,,,,,,8.40,2.12,8.12*07\x0d\x0a
[23d[M[11;17H21[39d(66) $GPGSV,4,1,16,01,19,083,,04,11,113,21,05,05,282,,07,40,082,28*76\x0d\x0a
[23d[M[14;18H4
3

7[39d(58) $GPGSV,4,2,16,08,,,24,09,16,016,23,10,04,332,,11,,,27*7C\x0d\x0a
[23d[M[18;18H1

1
3[39d(70) $GPGSV,4,3,16,13,61,257,31,17,50,344,31,19,04,143,11,26,33,228,23*7B\x0d\x0a
[23d[M[39d(60) $GPGSV,4,4,16,28,58,207,26,30,63,129,31,31,,,24,32,,,14*76\x0d\x0a
[23d[M[39d(52) $GPGLL,2730.04042,S,15300.95895,E,020844.00,A,A*75\x0d\x0a
[23d[M[3;26H5[3;51H6[3;73H43[9;38H5
[44G5
906[12;36H33[39d(68) $GPRMC,020845.00,A,2730.04045,S,15300.95906,E,0.033,,121214,,,A*64\x0d\x0a
[23d[M[39d(35) $GPVTG,,T,,M,0.033,N,0.062,K,A*27\x0d\x0a
[40;1H[?1049l[?1l>