[?1049h[1;40r(B[m[4l[?7h[?1h=[H[2J(B[0;1m/dev/ttyO2 9600 8N1[1;31H(B[mUnknown device>
(0[0mlqqqqqqqqqqqqqqqqqqqqqqqqqqqqqqqqqqqqqqqqqqqqqqqqqqqqqqqqqqqqqqqqqqqqqqqqqqqqqqk(B
(0[0mx(B[0;1mTime: [3;33HLat: [3;56HLon: [3;80H(0[0mx(B
(0[0mmqqqqqqqqqqqqqqqqqqqqqqqqqqqqqqqqq(B[0;1m Cooked PVT (0[0mqqqqqqqqqqqqqqqqqqqqqqqqqqqqqqqqqj(B
(0[0mlqqqqqqqqqqqqqqqqqqqqqqqqqqqqqqqqqqqqqqqqqqqqqqqqqqqqqqqqqqqqqqqqqqqqqqqqqqqqqqk(B
(0[0mx(B (B[0;1mGPVTG[6;80H(0[0mx(B
(0[0mmqqqqqqqqqqqqqqqqqqqqqqqqqqqqqqqqq(B[0;1m Sentences (0[0mqqqqqqqqqqqqqqqqqqqqqqqqqqqqqqqqqqj(B
(0[0mlqqqqqqqqqqqqqqqqqqklqqqqqqqqqqqqqqqqqqqqqqqqqqqqklqqqqqqqqqqqqqqqqqqqqqqqqqqqqk(B
(0[0mx(B[0;1mCh PRN  Az El S/N(B[m (0[0mxx(B[0;1mTime: [9;50H(0[0mxx(B[0;1mTime: [9;80H(0[0mx(B
(0[0mx(B[0;1m 0[10;20H(0[0mxx(B[0;1mLatitude: [10;50H(0[0mxx(B[0;1mLatitude: [10;80H(0[0mx(B
(0[0mx(B[0;1m 1[11;20H(0[0mxx(B[0;1mLongitude: [11;50H(0[0mxx(B[0;1mLongitude: [11;80H(0[0mx(B
(0[0mx(B[0;1m 2[12;20H(0[0mxx(B[0;1mSpeed: [12;50H(0[0mxx(B[0;1mAltitude: [12;80H(0[0mx(B
(0[0mx(B[0;1m 3[13;20H(0[0mxx(B[0;1mCourse: [13;50H(0[0mxx(B[0;1mQuality:       Sats: [80G(0[0mx(B
(0[0mx(B[0;1m 4[14;20H(0[0mxx(B[0;1mStatus:            FAA: (B[m    (0[0mxx(B[0;1mHDOP: [14;80H(0[0mx(B
(0[0mx(B[0;1m 5[15;20H(0[0mxx(B[0;1mMagVar: [15;50H(0[0mxx(B[0;1mGeoid: [15;80H(0[0mx(B
(0[0mx(B[0;1m 6[16;20H(0[0mxmqqqqqqqqqqq(B[0;1m RMC (0[0mqqqqqqqqqqqqjmqqqqqqqqqqq(B[0;1m GGA (0[0mqqqqqqqqqqqqj(B
(0[0mx(B[0;1m 7[17;20H(0[0mxlqqqqqqqqqqqqqqqqqqqqqqqqqqqqklqqqqqqqqqqqqqqqqqqqqqqqqqqqqk(B
(0[0mx(B[0;1m 8[18;20H(0[0mxx(B[0;1mMode: [18;50H(0[0mxx(B[0;1mUTC: [18;67HRMS: [18;80H(0[0mx(B
(0[0mx(B[0;1m 9[19;20H(0[0mxx(B[0;1mSats: [19;50H(0[0mxx(B[0;1mMAJ: [19;67HMIN: [19;80H(0[0mx(B
(0[0mx(B[0;1m10[20;20H(0[0mxx(B[0;1mDOP: H=      V=      P=(B[m     (0[0mxx(B[0;1mORI: [20;67HLAT: [20;80H(0[0mx(B
(0[0mx(B[0;1m11[21;20H(0[0mxmqqqqqqqqqqq(B[0;1m GSA (0[0mqqqqqqqqqqqqjx(B[0;1mLON: [21;67HALT: [21;80H(0[0mx(B
(0[0mmqqqqqq(B[0;1m GSV (0[0mqqqqqqqj(B[22;51H(0[0mmqqqqqqqqqqq(B[0;1m GST (0[0mqqqqqqqqqqqqj(B
(0[0m(B(32) $GPVTG,,T,,M,0.00,N,0.0,K,A*13\x0d\x0a
[1;31HGeneric NMEA>[K[6;3HGPVTG (B[0;1mGPGGA[9;63H(B[m020619.000[10;63H2730.0350[11;63H15300.9642[12;63H41.1
1[13;73H04[14;63H4.4
37.1[24d(76) $GPGGA,020619.000,2730.0350,S,15300.9642,E,1,04,4.4,41.1,M,37.1,M,,0000*76\x0d\x0a
[6;9HGPGGA GPGSA[18;28HA 3
30 28 13 11[20;29H4.4  (B[0;1m V=(B[m4.3  (B[0;1m P=(B[m6.2[25d(47) $GPGSA,A,3,30,28,13,11,,,,,,,,,6.2,4.4,4.3*3A\x0d\x0a
[6;21HGPGSV[10;6H30 131 63  34
[6G13 257 61  31
[6G28 208 57  33
[6G11 108 25  26[26d(70) $GPGSV,3,1,12,30,63,131,34,13,61,257,31,28,57,208,33,11,25,108,26*75\x0d\x0a
[14;6H10 332  3   0
[6G17 344 49   9
[6G26 227 32  29
[7G1  83 19  10[27d(68) $GPGSV,3,2,12,10,03,332,,17,49,344,09,26,32,227,29,01,19,083,10*70\x0d\x0a
[18;7H4 113 10   0
[7G5 282  5  11
[6G27 304  4   0
[6G19 143  4   0[28d(64) $GPGSV,3,3,12,04,10,113,,05,05,282,11,27,04,304,,19,04,143,*78\x0d\x0a
[6;27HGPGLL[29d(51) $GPGLL,2730.0350,S,15300.9642,E,020619.000,A,A*46\x0d\x0a
[3;8H2014-12-12T02:06:19.000Z[39G27 30' 02.099" S[61G153 00' 57.852" E[6;33HGPRMC[9;33H020619.000[10;36H2730.0350 S[11;35H15300.9642 E[12;33H0.00

A[14;46HA[30d(66) $GPRMC,020619.000,A,2730.0350,S,15300.9642,E,0.00,,121214,,,A*6A\x0d\x0a
(32) $GPVTG,,T,,M,0.00,N,0.0,K,A*13\x0d\x0a
[9;67H20[32d(76) $GPGGA,020620.000,2730.0350,S,15300.9642,E,1,04,4.4,41.1,M,37.1,M,,0000*7C\x0d\x0a
(47) $GPGSA,A,3,30,28,13,11,,,,,,,,,6.2,4.4,4.3*3A\x0d\x0a
(70) $GPGSV,3,1,12,30,63,131,34,13,61,257,31,28,57,208,33,11,25,108,26*75\x0d\x0a
[15;17H17[35d(68) $GPGSV,3,2,12,10,03,332,,17,49,344,17,26,32,227,29,01,19,083,10*7F\x0d\x0a
(64) $GPGSV,3,3,12,04,10,113,,05,05,282,11,27,04,304,,19,04,143,*78\x0d\x0a
(51) $GPGLL,2730.0350,S,15300.9642,E,020620.000,A,A*4C\x0d\x0a
[3;25H20[9;37H20[38d(66) $GPRMC,020620.000,A,2730.0350,S,15300.9642,E,0.00,,121214,,,A*60\x0d\x0a
(32) $GPVTG,,T,,M,0.00,N,0.0,K,A*13\x0d\x0a
[23d[M[9;68H1[39d(76) $GPGGA,020621.000,2730.0350,S,15300.9642,E,1,04,4.4,41.1,M,37.1,M,,0000*7D\x0d\x0a
[23d[M[39d(47) $GPGSA,A,3,30,28,13,11,,,,,,,,,6.2,4.4,4.3*3A\x0d\x0a
[23d[M[10;18H3[39d(70) $GPGSV,3,1,12,30,63,131,33,13,61,257,31,28,57,208,33,11,25,108,26*72\x0d\x0a
[23d[M[15;17H 9[39d(68) $GPGSV,3,2,12,10,03,332,,17,49,344,09,26,32,227,29,01,19,083,10*70\x0d\x0a
[23d[M[39d(64) $GPGSV,3,3,12,04,10,113,,05,05,282,11,27,04,304,,19,04,143,*78\x0d\x0a
[23d[M[39d(51) $GPGLL,2730.0350,S,15300.9642,E,020621.000,A,A*4D\x0d\x0a
[23d[M[3;26H1[9;38H1[39d(66) $GPRMC,020621.000,A,2730.0350,S,15300.9642,E,0.00,,121214,,,A*61\x0d\x0a
[23d[M[39d(32) $GPVTG,,T,,M,0.00,N,0.0,K,A*13\x0d\x0a
[23d[M[9;68H2[39d(76) $GPGGA,020622.000,2730.0350,S,15300.9642,E,1,04,4.4,41.1,M,37.1,M,,0000*7E\x0d\x0a
[23d[M[39d(47) $GPGSA,A,3,30,28,13,11,,,,,,,,,6.2,4.4,4.3*3A\x0d\x0a
[23d[M[10;18H4
2[39d(70) $GPGSV,3,1,12,30,63,131,34,13,61,257,32,28,57,208,33,11,25,108,26*76\x0d\x0a
[23d[M[17;17H [39d(66) $GPGSV,3,2,12,10,03,332,,17,49,344,09,26,32,227,29,01,19,083,*71\x0d\x0a
[23d[M[39d(64) $GPGSV,3,3,12,04,10,113,,05,05,282,11,27,04,304,,19,04,143,*78\x0d\x0a
[23d[M[39d(51) $GPGLL,2730.0350,S,15300.9642,E,020622.000,A,A*4E\x0d\x0a
[23d[M[3;26H2[9;38H2[39d(66) $GPRMC,020622.000,A,2730.0350,S,15300.9642,E,0.00,,121214,,,A*62\x0d\x0a
[23d[M[39d(32) $GPVTG,,T,,M,0.00,N,0.0,K,A*13\x0d\x0a
[23d[M[9;68H3[39d(76) $GPGGA,020623.000,2730.0350,S,15300.9642,E,1,04,4.4,41.1,M,37.1,M,,0000*7F\x0d\x0a
[23d[M[39d(47) $GPGSA,A,3,30,28,13,11,,,,,,,,,6.2,4.4,4.3*3A\x0d\x0a
[23d[M[39d(70) $GPGSV,3,1,12,30,63,131,34,13,61,257,32,28,57,208,33,11,25,108,26*76\x0d\x0a
[23d[M[15;17H10[39d(66) $GPGSV,3,2,12,10,03,332,,17,49,344,10,26,32,227,29,01,19,083,*79\x0d\x0a
[23d[M[39d(64) $GPGSV,3,3,12,04,10,113,,05,05,282,11,27,04,304,,19,04,143,*78\x0d\x0a
[23d[M[39d(51) $GPGLL,2730.0350,S,15300.9642,E,020623.000,A,A*4F\x0d\x0a
[23d[M[3;26H3[9;38H3[39d(66) $GPRMC,020623.000,A,2730.0350,S,15300.9642,E,0.00,,121214,,,A*63\x0d\x0a
[23d[M[39d(32) $GPVTG,,T,,M,0.00,N,0.0,K,A*13\x0d\x0a
[23d[M[9;68H4[39d(76) $GPGGA,020624.000,2730.0350,S,15300.9642,E,1,04,4.4,41.1,M,37.1,M,,0000*78\x0d\x0a
[23d[M[39d(47) $GPGSA,A,3,30,28,13,11,,,,,,,,,6.2,4.4,4.3*3A\x0d\x0a
[23d[M[10;18H3[39d(70) $GPGSV,3,1,12,30,63,131,33,13,61,257,32,28,57,208,33,11,25,108,26*71\x0d\x0a
[23d[M[39d(66) $GPGSV,3,2,12,10,03,332,,17,49,344,10,26,32,227,29,01,19,083,*79\x0d\x0a
[23d[M[19;18H4[39d(64) $GPGSV,3,3,12,04,10,113,,05,05,282,14,27,04,304,,19,04,143,*7D\x0d\x0a
[23d[M[39d(51) $GPGLL,2730.0350,S,15300.9642,E,020624.000,A,A*48\x0d\x0a
[23d[M[3;26H4[9;38H4[39d(66) $GPRMC,020624.000,A,2730.0350,S,15300.9642,E,0.00,,121214,,,A*64\x0d\x0a
[23d[M[39d(32) $GPVTG,,T,,M,0.00,N,0.0,K,A*13\x0d\x0a
[23d[M[9;68H5[39d(76) $GPGGA,020625.000,2730.0350,S,15300.9642,E,1,04,4.4,41.1,M,37.1,M,,0000*79\x0d\x0a
[23d[M[39d(47) $GPGSA,A,3,30,28,13,11,,,,,,,,,6.2,4.4,4.3*3A\x0d\x0a
[23d[M[39d(70) $GPGSV,3,1,12,30,63,131,33,13,61,257,32,28,57,208,33,11,25,108,26*71\x0d\x0a
[23d[M[39d(66) $GPGSV,3,2,12,10,03,332,,17,49,344,10,26,32,227,29,01,19,083,*79\x0d\x0a
[23d[M[39d(64) $GPGSV,3,3,12,04,10,113,,05,05,282,14,27,04,304,,19,04,143,*7D\x0d\x0a
[23d[M[39d(51) $GPGLL,2730.0350,S,15300.9642,E,020625.000,A,A*49\x0d\x0a
[23d[M[3;26H5[9;38H5[39d(66) $GPRMC,020625.000,A,2730.0350,S,15300.9642,E,0.00,,121214,,,A*65\x0d\x0a
[23d[M[39d(32) $GPVTG,,T,,M,0.00,N,0.0,K,A*13\x0d\x0a
[23d[M[9;68H6[39d(76) $GPGGA,020626.000,2730.0350,S,15300.9642,E,1,04,4.4,41.1,M,37.1,M,,0000*7A\x0d\x0a
[23d[M[39d(47) $GPGSA,A,3,30,28,13,11,,,,,,,,,6.2,4.4,4.3*3A\x0d\x0a
[23d[M[11;18H1[39d(70) $GPGSV,3,1,12,30,63,131,33,13,61,257,31,28,57,208,33,11,25,108,26*72\x0d\x0a
[23d[M[39d(66) $GPGSV,3,2,12,10,03,332,,17,49,344,10,26,32,227,29,01,19,083,*79\x0d\x0a
[23d[M[39d(64) $GPGSV,3,3,12,04,10,113,,05,05,282,14,27,04,304,,19,04,143,*7D\x0d\x0a
[23d[M[39d(51) $GPGLL,2730.0350,S,15300.9642,E,020626.000,A,A*4A\x0d\x0a
[23d[M[3;26H6[9;38H6[39d(66) $GPRMC,020626.000,A,2730.0350,S,15300.9642,E,0.00,,121214,,,A*66\x0d\x0a
[23d[M[39d(32) $GPVTG,,T,,M,0.00,N,0.0,K,A*13\x0d\x0a
[23d[M[9;68H7[39d(76) $GPGGA,020627.000,2730.0350,S,15300.9642,E,1,04,4.4,41.1,M,37.1,M,,0000*7B\x0d\x0a
[23d[M[39d(47) $GPGSA,A,3,30,28,13,11,,,,,,,,,6.2,4.4,4.3*3A\x0d\x0a
[23d[M[39d(70) $GPGSV,3,1,12,30,63,131,33,13,61,257,31,28,57,208,33,11,25,108,26*72\x0d\x0a
[23d[M[39d(66) $GPGSV,3,2,12,10,03,332,,17,49,344,10,26,32,227,29,01,19,083,*79\x0d\x0a
[23d[M[39d(64) $GPGSV,3,3,12,04,10,113,,05,05,282,14,27,04,304,,19,04,143,*7D\x0d\x0a
[23d[M[39d(51) $GPGLL,2730.0350,S,15300.9642,E,020627.000,A,A*4B\x0d\x0a
[23d[M[3;26H7[9;38H7[39d(66) $GPRMC,020627.000,A,2730.0350,S,15300.9642,E,0.00,,121214,,,A*67\x0d\x0a
[23d[M[39d(32) $GPVTG,,T,,M,0.00,N,0.0,K,A*13\x0d\x0a
[23d[M[9;68H8[39d(76) $GPGGA,020628.000,2730.0350,S,15300.9642,E,1,04,4.4,41.1,M,37.1,M,,0000*74\x0d\x0a
[23d[M[39d(47) $GPGSA,A,3,30,28,13,11,,,,,,,,,6.2,4.4,4.3*3A\x0d\x0a
[23d[M[10;18H4


5[39d(70) $GPGSV,3,1,12,30,63,131,34,13,61,257,31,28,57,208,33,11,25,108,25*76\x0d\x0a
[23d[M[39d(66) $GPGSV,3,2,12,10,03,332,,17,49,344,10,26,32,227,29,01,19,083,*79\x0d\x0a
[23d[M[19;17H 8[39d(64) $GPGSV,3,3,12,04,10,113,,05,05,282,08,27,04,304,,19,04,143,*70\x0d\x0a
[23d[M[39d(51) $GPGLL,2730.0350,S,15300.9642,E,020628.000,A,A*44\x0d\x0a
[23d[M[3;26H8[9;38H8[39d(66) $GPRMC,020628.000,A,2730.0350,S,15300.9642,E,0.00,,121214,,,A*68\x0d\x0a
[23d[M[39d(32) $GPVTG,,T,,M,0.00,N,0.0,K,A*13\x0d\x0a
[23d[M[9;68H9[39d(76) $GPGGA,020629.000,2730.0350,S,15300.9642,E,1,04,4.4,41.1,M,37.1,M,,0000*75\x0d\x0a
[23d[M[39d(47) $GPGSA,A,3,30,28,13,11,,,,,,,,,6.2,4.4,4.3*3A\x0d\x0a
[23d[M[39d(70) $GPGSV,3,1,12,30,63,131,34,13,61,257,31,28,57,208,33,11,25,108,25*76\x0d\x0a
[23d[M[39d(66) $GPGSV,3,2,12,10,03,332,,17,49,344,10,26,32,227,29,01,19,083,*79\x0d\x0a
[23d[M[39d(64) $GPGSV,3,3,12,04,10,113,,05,05,282,08,27,04,304,,19,04,143,*70\x0d\x0a
[23d[M[39d(51) $GPGLL,2730.0350,S,15300.9642,E,020629.000,A,A*45\x0d\x0a
[23d[M[3;26H9[9;38H9[39d(66) $GPRMC,020629.000,A,2730.0350,S,15300.9642,E,0.00,,121214,,,A*69\x0d\x0a
[23d[M[39d(32) $GPVTG,,T,,M,0.00,N,0.0,K,A*13\x0d\x0a
[23d[M[9;67H30[39d(76) $GPGGA,020630.000,2730.0350,S,15300.9642,E,1,04,4.4,41.1,M,37.1,M,,0000*7D\x0d\x0a
[23d[M[39d(47) $GPGSA,A,3,30,28,13,11,,,,,,,,,6.2,4.4,4.3*3A\x0d\x0a
[23d[M[39d(70) $GPGSV,3,1,12,30,63,131,34,13,61,257,31,28,57,208,33,11,25,108,25*76\x0d\x0a
[23d[M[39d(66) $GPGSV,3,2,12,10,03,332,,17,49,344,10,26,32,227,29,01,19,083,*79\x0d\x0a
[23d[M[39d(64) $GPGSV,3,3,12,04,10,113,,05,05,282,08,27,04,304,,19,04,143,*70\x0d\x0a
[23d[M[39d(51) $GPGLL,2730.0350,S,15300.9642,E,020630.000,A,A*4D\x0d\x0a
[23d[M[3;25H30[9;37H30[39d(66) $GPRMC,020630.000,A,2730.0350,S,15300.9642,E,0.00,,121214,,,A*61\x0d\x0a
[23d[M[39d(32) $GPVTG,,T,,M,0.00,N,0.0,K,A*13\x0d\x0a
[23d[M[9;68H1[39d(76) $GPGGA,020631.000,2730.0350,S,15300.9642,E,1,04,4.4,41.1,M,37.1,M,,0000*7C\x0d\x0a
[23d[M[39d(47) $GPGSA,A,3,30,28,13,11,,,,,,,,,6.2,4.4,4.3*3A\x0d\x0a
[23d[M[39d(70) $GPGSV,3,1,12,30,63,131,34,13,61,257,31,28,57,208,33,11,25,108,25*76\x0d\x0a
[23d[M[39d(66) $GPGSV,3,2,12,10,03,332,,17,49,344,10,26,32,227,29,01,19,083,*79\x0d\x0a
[23d[M[39d(64) $GPGSV,3,3,12,04,10,113,,05,05,282,08,27,04,304,,19,04,143,*70\x0d\x0a
[23d[M[39d(51) $GPGLL,2730.0350,S,15300.9642,E,020631.000,A,A*4C\x0d\x0a
[23d[M[3;26H1[9;38H1[39d(66) $GPRMC,020631.000,A,2730.0350,S,15300.9642,E,0.00,,121214,,,A*60\x0d\x0a
[23d[M[39d(32) $GPVTG,,T,,M,0.00,N,0.0,K,A*13\x0d\x0a
[23d[M[9;68H2[13;74H5[14;63H3.5[39d(76) $GPGGA,020632.000,2730.0350,S,15300.9642,E,1,05,3.5,41.1,M,37.1,M,,0000*78\x0d\x0a
[23d[M[19;37H26 11[20;29H3.5  (B[0;1m V=(B[m2.8  (B[0;1m P=(B[m4.5[39d(49) $GPGSA,A,3,30,28,13,26,11,,,,,,,,4.5,3.5,2.8*30\x0d\x0a
[23d[M[12;11H7
[6G26 227 33  29[39d(70) $GPGSV,3,1,12,30,63,131,34,13,61,257,31,28,57,207,33,26,33,227,29*78\x0d\x0a
[23d[M[14;7H1 108 25  25
[7G0 332  3
[6G17 344 50  15[39d(68) $GPGSV,3,2,12,11,25,108,25,10,03,332,10,17,50,344,15,01,19,083,*75\x0d\x0a
[23d[M[39d(64) $GPGSV,3,3,12,04,10,113,,05,05,282,08,27,04,304,,19,04,143,*70\x0d\x0a
[23d[M[39d(51) $GPGLL,2730.0350,S,15300.9642,E,020632.000,A,A*4F\x0d\x0a
[23d[M[3;26H2[9;38H2[39d(66) $GPRMC,020632.000,A,2730.0350,S,15300.9642,E,0.00,,121214,,,A*63\x0d\x0a
[23d[M[39d(32) $GPVTG,,T,,M,0.00,N,0.0,K,A*13\x0d\x0a
[23d[M[9;68H3[39d(76) $GPGGA,020633.000,2730.0350,S,15300.9642,E,1,05,3.5,41.1,M,37.1,M,,0000*79\x0d\x0a
[23d[M[39d(49) $GPGSA,A,3,30,28,13,26,11,,,,,,,,4.5,3.5,2.8*30\x0d\x0a
[23d[M[11;18H2[39d(70) $GPGSV,3,1,12,30,63,131,34,13,61,257,32,28,57,207,33,26,33,227,29*7B\x0d\x0a
[23d[M[39d(68) $GPGSV,3,2,12,11,25,108,25,10,03,332,10,17,50,344,15,01,19,083,*75\x0d\x0a
[23d[M[39d(64) $GPGSV,3,3,12,04,10,113,,05,05,282,08,27,04,304,,19,04,143,*70\x0d\x0a
[23d[M[39d(51) $GPGLL,2730.0350,S,15300.9642,E,020633.000,A,A*4E\x0d\x0a
[23d[M[3;26H3[9;38H3[39d(66) $GPRMC,020633.000,A,2730.0350,S,15300.9642,E,0.00,,121214,,,A*62\x0d\x0a
[23d[M[39d(32) $GPVTG,,T,,M,0.00,N,0.0,K,A*13\x0d\x0a
[23d[M[9;68H4[39d(76) $GPGGA,020634.000,2730.0350,S,15300.9642,E,1,05,3.5,41.1,M,37.1,M,,0000*7E\x0d\x0a
[23d[M[39d(49) $GPGSA,A,3,30,28,13,26,11,,,,,,,,4.5,3.5,2.8*30\x0d\x0a
[23d[M[39d(70) $GPGSV,3,1,12,30,63,131,34,13,61,257,32,28,57,207,33,26,33,227,29*7B\x0d\x0a
[23d[M[16;17H 8[39d(68) $GPGSV,3,2,12,11,25,108,25,10,03,332,10,17,50,344,08,01,19,083,*79\x0d\x0a
[23d[M[39d(64) $GPGSV,3,3,12,04,10,113,,05,05,282,08,27,04,304,,19,04,143,*70\x0d\x0a
[23d[M[39d(51) $GPGLL,2730.0350,S,15300.9642,E,020634.000,A,A*49\x0d\x0a
[23d[M[3;26H4[9;38H4[39d(66) $GPRMC,020634.000,A,2730.0350,S,15300.9642,E,0.00,,121214,,,A*65\x0d\x0a
[23d[M[39d(32) $GPVTG,,T,,M,0.00,N,0.0,K,A*13\x0d\x0a
[23d[M[9;68H5[39d(76) $GPGGA,020635.000,2730.0350,S,15300.9642,E,1,05,3.5,41.1,M,37.1,M,,0000*7F\x0d\x0a
[23d[M[39d(49) $GPGSA,A,3,30,28,13,26,11,,,,,,,,4.5,3.5,2.8*30\x0d\x0a
[23d[M[39d(70) $GPGSV,3,1,12,30,63,131,34,13,61,257,32,28,57,207,33,26,33,227,29*7B\x0d\x0a
[23d[M[39d(68) $GPGSV,3,2,12,11,25,108,25,10,03,332,10,17,50,344,08,01,19,083,*79\x0d\x0a
[23d[M[19;17H11[39d(64) $GPGSV,3,3,12,04,10,113,,05,05,282,11,27,04,304,,19,04,143,*78\x0d\x0a
[23d[M[39d(51) $GPGLL,2730.0350,S,15300.9642,E,020635.000,A,A*48\x0d\x0a
[23d[M[3;26H5[9;38H5[39d(66) $GPRMC,020635.000,A,2730.0350,S,15300.9642,E,0.00,,121214,,,A*64\x0d\x0a
[23d[M[39d(32) $GPVTG,,T,,M,0.00,N,0.0,K,A*13\x0d\x0a
[23d[M[9;68H6[39d(76) $GPGGA,020636.000,2730.0350,S,15300.9642,E,1,05,3.5,41.1,M,37.1,M,,0000*7C\x0d\x0a
[23d[M[39d(49) $GPGSA,A,3,30,28,13,26,11,,,,,,,,4.5,3.5,2.8*30\x0d\x0a
[23d[M[13;17H30[39d(70) $GPGSV,3,1,12,30,63,131,34,13,61,257,32,28,57,207,33,26,33,227,30*73\x0d\x0a
[23d[M[15;17H [39d(66) $GPGSV,3,2,12,11,25,108,25,10,03,332,,17,50,344,08,01,19,083,*78\x0d\x0a
[23d[M[39d(64) $GPGSV,3,3,12,04,10,113,,05,05,282,11,27,04,304,,19,04,143,*78\x0d\x0a
[23d[M[39d(51) $GPGLL,2730.0350,S,15300.9642,E,020636.000,A,A*4B\x0d\x0a
[23d[M[3;26H6[9;38H6[39d(66) $GPRMC,020636.000,A,2730.0350,S,15300.9642,E,0.00,,121214,,,A*67\x0d\x0a
[23d[M[39d(32) $GPVTG,,T,,M,0.00,N,0.0,K,A*13\x0d\x0a
[23d[M[9;68H7[39d(76) $GPGGA,020637.000,2730.0350,S,15300.9642,E,1,05,3.5,41.1,M,37.1,M,,0000*7D\x0d\x0a
[23d[M[39d(49) $GPGSA,A,3,30,28,13,26,11,,,,,,,,4.5,3.5,2.8*30\x0d\x0a
[23d[M[13;17H29[39d(70) $GPGSV,3,1,12,30,63,131,34,13,61,257,32,28,57,207,33,26,33,227,29*7B\x0d\x0a
[23d[M[14;18H4[39d(66) $GPGSV,3,2,12,11,25,108,24,10,03,332,,17,50,344,08,01,19,083,*79\x0d\x0a
[23d[M[39d(64) $GPGSV,3,3,12,04,10,113,,05,05,282,11,27,04,304,,19,04,143,*78\x0d\x0a
[23d[M[39d(51) $GPGLL,2730.0350,S,15300.9642,E,020637.000,A,A*4A\x0d\x0a
[23d[M[3;26H7[9;38H7[39d(66) $GPRMC,020637.000,A,2730.0350,S,15300.9642,E,0.00,,121214,,,A*66\x0d\x0a
[23d[M[39d(32) $GPVTG,,T,,M,0.00,N,0.0,K,A*13\x0d\x0a
[23d[M[9;68H8[39d(76) $GPGGA,020638.000,2730.0350,S,15300.9642,E,1,05,3.5,41.1,M,37.1,M,,0000*72\x0d\x0a
[23d[M[39d(49) $GPGSA,A,3,30,28,13,26,11,,,,,,,,4.5,3.5,2.8*30\x0d\x0a
[23d[M[11;18H1
4[39d(70) $GPGSV,3,1,11,30,63,131,34,13,61,257,31,28,57,207,34,26,33,227,29*7C\x0d\x0a
[23d[M[39d(66) $GPGSV,3,2,11,11,25,108,24,10,03,332,,17,50,344,08,01,19,083,*7A\x0d\x0a
[23d[M[20;6H19 143  3[39d(53) $GPGSV,3,3,11,04,10,113,,05,05,282,11,19,03,143,*4A\x0d\x0a
[23d[M[39d(51) $GPGLL,2730.0350,S,15300.9642,E,020638.000,A,A*45\x0d\x0a
[23d[M[3;26H8[9;38H8[39d(66) $GPRMC,020638.000,A,2730.0350,S,15300.9642,E,0.00,,121214,,,A*69\x0d\x0a
[23d[M[39d(32) $GPVTG,,T,,M,0.00,N,0.0,K,A*13\x0d\x0a
[23d[M[9;68H9[39d(76) $GPGGA,020639.000,2730.0350,S,15300.9642,E,1,05,3.5,41.1,M,37.1,M,,0000*73\x0d\x0a
[23d[M[39d(49) $GPGSA,A,3,30,28,13,26,11,,,,,,,,4.5,3.5,2.8*30\x0d\x0a
[23d[M[39d(70) $GPGSV,3,1,11,30,63,131,34,13,61,257,31,28,57,207,34,26,33,227,29*7C\x0d\x0a
[23d[M[39d(66) $GPGSV,3,2,11,11,25,108,24,10,03,332,,17,50,344,08,01,19,083,*7A\x0d\x0a
[23d[M[39d(53) $GPGSV,3,3,11,04,10,113,,05,05,282,11,19,03,143,*4A\x0d\x0a
[23d[M[39d(51) $GPGLL,2730.0350,S,15300.9642,E,020639.000,A,A*44\x0d\x0a
[23d[M[3;26H9[9;38H9[39d(66) $GPRMC,020639.000,A,2730.0350,S,15300.9642,E,0.00,,121214,,,A*68\x0d\x0a
[23d[M[39d(32) $GPVTG,,T,,M,0.00,N,0.0,K,A*13\x0d\x0a
[23d[M[9;67H40[39d(76) $GPGGA,020640.000,2730.0350,S,15300.9642,E,1,05,3.5,41.1,M,37.1,M,,0000*7D\x0d\x0a
[23d[M[39d(49) $GPGSA,A,3,30,28,13,26,11,,,,,,,,4.5,3.5,2.8*30\x0d\x0a
[23d[M[11;18H2[39d(70) $GPGSV,3,1,11,30,63,131,34,13,61,257,32,28,57,207,34,26,33,227,29*7F\x0d\x0a
[23d[M[39d(66) $GPGSV,3,2,11,11,25,108,24,10,03,332,,17,50,344,08,01,19,083,*7A\x0d\x0a
[23d[M[39d(53) $GPGSV,3,3,11,04,10,113,,05,05,282,11,19,03,143,*4A\x0d\x0a
[23d[M[39d(51) $GPGLL,2730.0350,S,15300.9642,E,020640.000,A,A*4A\x0d\x0a
[23d[M[3;25H40[9;37H40[39d(66) $GPRMC,020640.000,A,2730.0350,S,15300.9642,E,0.00,,121214,,,A*66\x0d\x0a
[23d[M[39d(32) $GPVTG,,T,,M,0.00,N,0.0,K,A*13\x0d\x0a
[23d[M[9;68H1[39d(76) $GPGGA,020641.000,2730.0350,S,15300.9642,E,1,05,3.5,41.1,M,37.1,M,,0000*7C\x0d\x0a
[23d[M[39d(49) $GPGSA,A,3,30,28,13,26,11,,,,,,,,4.5,3.5,2.8*30\x0d\x0a
[23d[M[39d(70) $GPGSV,3,1,11,30,63,131,34,13,61,257,32,28,57,207,34,26,33,227,29*7F\x0d\x0a
[23d[M[39d(66) $GPGSV,3,2,11,11,25,108,24,10,03,332,,17,50,344,08,01,19,083,*7A\x0d\x0a
[23d[M[39d(53) $GPGSV,3,3,11,04,10,113,,05,05,282,11,19,03,143,*4A\x0d\x0a
[23d[M[39d(51) $GPGLL,2730.0350,S,15300.9642,E,020641.000,A,A*4B\x0d\x0a
[23d[M[3;26H1[9;38H1[39d(66) $GPRMC,020641.000,A,2730.0350,S,15300.9642,E,0.00,,121214,,,A*67\x0d\x0a
[23d[M[39d(32) $GPVTG,,T,,M,0.00,N,0.0,K,A*13\x0d\x0a
[23d[M[9;68H2[39d(76) $GPGGA,020642.000,2730.0350,S,15300.9642,E,1,05,3.5,41.1,M,37.1,M,,0000*7F\x0d\x0a
[23d[M[39d(49) $GPGSA,A,3,30,28,13,26,11,,,,,,,,4.5,3.5,2.8*30\x0d\x0a
[23d[M[39d(70) $GPGSV,3,1,11,30,63,131,34,13,61,257,32,28,57,207,34,26,33,227,29*7F\x0d\x0a
[23d[M[39d(66) $GPGSV,3,2,11,11,25,108,24,10,03,332,,17,50,344,08,01,19,083,*7A\x0d\x0a
[23d[M[39d(53) $GPGSV,3,3,11,04,10,113,,05,05,282,11,19,03,143,*4A\x0d\x0a
[23d[M[39d(51) $GPGLL,2730.0350,S,15300.9642,E,020642.000,A,A*48\x0d\x0a
[23d[M[3;26H2[9;38H2[39d(66) $GPRMC,020642.000,A,2730.0350,S,15300.9642,E,0.00,,121214,,,A*64\x0d\x0a
[23d[M[39d(32) $GPVTG,,T,,M,0.00,N,0.0,K,A*13\x0d\x0a
[23d[M[9;68H3[39d(76) $GPGGA,020643.000,2730.0350,S,15300.9642,E,1,05,3.5,41.1,M,37.1,M,,0000*7E\x0d\x0a
[23d[M[39d(49) $GPGSA,A,3,30,28,13,26,11,,,,,,,,4.5,3.5,2.8*30\x0d\x0a
[23d[M[39d(70) $GPGSV,3,1,11,30,63,131,34,13,61,257,32,28,57,207,34,26,33,227,29*7F\x0d\x0a
[23d[M[39d(66) $GPGSV,3,2,11,11,25,108,24,10,03,332,,17,50,344,08,01,19,083,*7A\x0d\x0a
[23d[M[39d(53) $GPGSV,3,3,11,04,10,113,,05,05,282,11,19,03,143,*4A\x0d\x0a
[23d[M[39d(51) $GPGLL,2730.0350,S,15300.9642,E,020643.000,A,A*49\x0d\x0a
[23d[M[3;26H3[9;38H3[39d(66) $GPRMC,020643.000,A,2730.0350,S,15300.9642,E,0.00,,121214,,,A*65\x0d\x0a
[23d[M[39d(32) $GPVTG,,T,,M,0.00,N,0.0,K,A*13\x0d\x0a
[23d[M[9;68H4[39d(76) $GPGGA,020644.000,2730.0350,S,15300.9642,E,1,05,3.5,41.1,M,37.1,M,,0000*79\x0d\x0a
[23d[M[39d(49) $GPGSA,A,3,30,28,13,26,11,,,,,,,,4.5,3.5,2.8*30\x0d\x0a
[23d[M[10;11H0[39d(70) $GPGSV,3,1,11,30,63,130,34,13,61,257,32,28,57,207,34,26,33,227,29*7E\x0d\x0a
[23d[M[39d(66) $GPGSV,3,2,11,11,25,108,24,10,03,332,,17,50,344,08,01,19,083,*7A\x0d\x0a
[23d[M[19;14H4[39d(53) $GPGSV,3,3,11,04,10,113,,05,04,282,11,19,03,143,*4B\x0d\x0a
[23d[M[39d(51) $GPGLL,2730.0350,S,15300.9642,E,020644.000,A,A*4E\x0d\x0a
[23d[M[3;26H4[9;38H4[39d(66) $GPRMC,020644.000,A,2730.0350,S,15300.9642,E,0.00,,121214,,,A*62\x0d\x0a
[23d[M[39d(32) $GPVTG,,T,,M,0.00,N,0.0,K,A*13\x0d\x0a
[23d[M[9;68H5[39d(76) $GPGGA,020645.000,2730.0350,S,15300.9642,E,1,05,3.5,41.1,M,37.1,M,,0000*78\x0d\x0a
[23d[M[39d(49) $GPGSA,A,3,30,28,13,26,11,,,,,,,,4.5,3.5,2.8*30\x0d\x0a
[23d[M[39d(70) $GPGSV,3,1,11,30,63,130,34,13,61,257,32,28,57,207,34,26,33,227,29*7E\x0d\x0a
[23d[M[39d(66) $GPGSV,3,2,11,11,25,108,24,10,03,332,,17,50,344,08,01,19,083,*7A\x0d\x0a
[23d[M[39d(53) $GPGSV,3,3,11,04,10,113,,05,04,282,11,19,03,143,*4B\x0d\x0a
[23d[M[39d(51) $GPGLL,2730.0350,S,15300.9642,E,020645.000,A,A*4F\x0d\x0a
[23d[M[3;26H5[9;38H5[39d(66) $GPRMC,020645.000,A,2730.0350,S,15300.9642,E,0.00,,121214,,,A*63\x0d\x0a
[23d[M[39d(32) $GPVTG,,T,,M,0.00,N,0.0,K,A*13\x0d\x0a
[23d[M[9;68H6[39d(76) $GPGGA,020646.000,2730.0350,S,15300.9642,E,1,05,3.5,41.1,M,37.1,M,,0000*7B\x0d\x0a
[23d[M[39d(49) $GPGSA,A,3,30,28,13,26,11,,,,,,,,4.5,3.5,2.8*30\x0d\x0a
[23d[M[39d(70) $GPGSV,3,1,11,30,63,130,34,13,61,257,32,28,57,207,34,26,33,227,29*7E\x0d\x0a
[23d[M[39d(66) $GPGSV,3,2,11,11,25,108,24,10,03,332,,17,50,344,08,01,19,083,*7A\x0d\x0a
[23d[M[39d(53) $GPGSV,3,3,11,04,10,113,,05,04,282,11,19,03,143,*4B\x0d\x0a
[23d[M[39d(51) $GPGLL,2730.0350,S,15300.9642,E,020646.000,A,A*4C\x0d\x0a
[23d[M[3;26H6[9;38H6[39d(66) $GPRMC,020646.000,A,2730.0350,S,15300.9642,E,0.00,,121214,,,A*60\x0d\x0a
[23d[M[39d(32) $GPVTG,,T,,M,0.00,N,0.0,K,A*13\x0d\x0a
[23d[M[9;68H7[39d(76) $GPGGA,020647.000,2730.0350,S,15300.9642,E,1,05,3.5,41.1,M,37.1,M,,0000*7A\x0d\x0a
[23d[M[39d(49) $GPGSA,A,3,30,28,13,26,11,,,,,,,,4.5,3.5,2.8*30\x0d\x0a
[23d[M[39d(70) $GPGSV,3,1,11,30,63,130,34,13,61,257,32,28,57,207,34,26,33,227,29*7E\x0d\x0a
[23d[M[16;18H0[39d(64) $GPGSV,3,2,11,11,25,108,24,10,03,332,,17,50,344,,01,19,083,*72\x0d\x0a
[23d[M[39d(53) $GPGSV,3,3,11,04,10,113,,05,04,282,11,19,03,143,*4B\x0d\x0a
[23d[M[39d(51) $GPGLL,2730.0350,S,15300.9642,E,020647.000,A,A*4D\x0d\x0a
[23d[M[3;26H7[9;38H7[39d(66) $GPRMC,020647.000,A,2730.0350,S,15300.9642,E,0.00,,121214,,,A*61\x0d\x0a
[23d[M[39d(32) $GPVTG,,T,,M,0.00,N,0.0,K,A*13\x0d\x0a
[23d[M[9;68H8[39d(76) $GPGGA,020648.000,2730.0350,S,15300.9642,E,1,05,3.5,41.1,M,37.1,M,,0000*75\x0d\x0a
[23d[M[39d(49) $GPGSA,A,3,30,28,13,26,11,,,,,,,,4.5,3.5,2.8*30\x0d\x0a
[23d[M[39d(70) $GPGSV,3,1,11,30,63,130,34,13,61,257,32,28,57,207,34,26,33,227,29*7E\x0d\x0a
[23d[M[39d(64) $GPGSV,3,2,11,11,25,108,24,10,03,332,,17,50,344,,01,19,083,*72\x0d\x0a
[23d[M[19;17H 0[39d(51) $GPGSV,3,3,11,04,10,113,,05,04,282,,19,03,143,*4B\x0d\x0a
[23d[M[39d(51) $GPGLL,2730.0350,S,15300.9642,E,020648.000,A,A*42\x0d\x0a
[23d[M[3;26H8[9;38H8[39d(66) $GPRMC,020648.000,A,2730.0350,S,15300.9642,E,0.00,,121214,,,A*6E\x0d\x0a
[23d[M[39d(32) $GPVTG,,T,,M,0.00,N,0.0,K,A*13\x0d\x0a
[23d[M[9;68H9[39d(76) $GPGGA,020649.000,2730.0350,S,15300.9642,E,1,05,3.5,41.1,M,37.1,M,,0000*74\x0d\x0a
[23d[M[39d(49) $GPGSA,A,3,30,28,13,26,11,,,,,,,,4.5,3.5,2.8*30\x0d\x0a
[23d[M[39d(70) $GPGSV,3,1,11,30,63,130,34,13,61,257,32,28,57,207,34,26,33,227,29*7E\x0d\x0a
[23d[M[39d(64) $GPGSV,3,2,11,11,25,108,24,10,03,332,,17,50,344,,01,19,083,*72\x0d\x0a
[23d[M[39d(51) $GPGSV,3,3,11,04,10,113,,05,04,282,,19,03,143,*4B\x0d\x0a
[23d[M[39d(51) $GPGLL,2730.0350,S,15300.9642,E,020649.000,A,A*43\x0d\x0a
[23d[M[3;26H9[9;38H9[39d(66) $GPRMC,020649.000,A,2730.0350,S,15300.9642,E,0.00,,121214,,,A*6F\x0d\x0a
[23d[M[39d(32) $GPVTG,,T,,M,0.00,N,0.0,K,A*13\x0d\x0a
[23d[M[9;67H50[39d(76) $GPGGA,020650.000,2730.0350,S,15300.9642,E,1,05,3.5,41.1,M,37.1,M,,0000*7C\x0d\x0a
[23d[M[39d(49) $GPGSA,A,3,30,28,13,26,11,,,,,,,,4.5,3.5,2.8*30\x0d\x0a
[23d[M[39d(70) $GPGSV,3,1,11,30,63,130,34,13,61,257,32,28,57,207,34,26,33,227,29*7E\x0d\x0a
[23d[M[14;18H5[39d(64) $GPGSV,3,2,11,11,25,108,25,10,03,332,,17,50,344,,01,19,083,*73\x0d\x0a
[23d[M[39d(51) $GPGSV,3,3,11,04,10,113,,05,04,282,,19,03,143,*4B\x0d\x0a
[23d[M[39d(51) $GPGLL,2730.0350,S,15300.9642,E,020650.000,A,A*4B\x0d\x0a
[23d[M[3;25H50[9;37H50[39d(66) $GPRMC,020650.000,A,2730.0350,S,15300.9642,E,0.00,,121214,,,A*67\x0d\x0a
[23d[M[39d(32) $GPVTG,,T,,M,0.00,N,0.0,K,A*13\x0d\x0a
[23d[M[9;68H1[39d(76) $GPGGA,020651.000,2730.0350,S,15300.9642,E,1,05,3.5,41.1,M,37.1,M,,0000*7D\x0d\x0a
[23d[M[39d(49) $GPGSA,A,3,30,28,13,26,11,,,,,,,,4.5,3.5,2.8*30\x0d\x0a
[23d[M[39d(70) $GPGSV,3,1,11,30,63,130,34,13,61,257,32,28,57,207,34,26,33,227,29*7E\x0d\x0a
[23d[M[39d(64) $GPGSV,3,2,11,11,25,108,25,10,03,332,,17,50,344,,01,19,083,*73\x0d\x0a
[23d[M[39d(51) $GPGSV,3,3,11,04,10,113,,05,04,282,,19,03,143,*4B\x0d\x0a
[23d[M[39d(51) $GPGLL,2730.0350,S,15300.9642,E,020651.000,A,A*4A\x0d\x0a
[23d[M[3;26H1[9;38H1[39d(66) $GPRMC,020651.000,A,2730.0350,S,15300.9642,E,0.00,,121214,,,A*66\x0d\x0a
[23d[M[39d(32) $GPVTG,,T,,M,0.00,N,0.0,K,A*13\x0d\x0a
[23d[M[9;68H2[39d(76) $GPGGA,020652.000,2730.0350,S,15300.9642,E,1,05,3.5,41.1,M,37.1,M,,0000*7E\x0d\x0a
[23d[M[39d(49) $GPGSA,A,3,30,28,13,26,11,,,,,,,,4.5,3.5,2.8*30\x0d\x0a
[23d[M[39d(70) $GPGSV,3,1,11,30,63,130,34,13,61,257,32,28,57,207,34,26,33,227,29*7E\x0d\x0a
[23d[M[17;17H1[39d(66) $GPGSV,3,2,11,11,25,108,25,10,03,332,,17,50,344,,01,19,083,10*72\x0d\x0a
[23d[M[19;17H1[39d(53) $GPGSV,3,3,11,04,10,113,,05,04,282,10,19,03,143,*4A\x0d\x0a
[23d[M[39d(51) $GPGLL,2730.0350,S,15300.9642,E,020652.000,A,A*49\x0d\x0a
[23d[M[3;26H2[9;38H2[39d(66) $GPRMC,020652.000,A,2730.0350,S,15300.9642,E,0.00,,121214,,,A*65\x0d\x0a
[23d[M[39d(32) $GPVTG,,T,,M,0.00,N,0.0,K,A*13\x0d\x0a
[23d[M[9;68H3[39d(76) $GPGGA,020653.000,2730.0350,S,15300.9642,E,1,05,3.5,41.1,M,37.1,M,,0000*7F\x0d\x0a
[23d[M[39d(49) $GPGSA,A,3,30,28,13,26,11,,,,,,,,4.5,3.5,2.8*30\x0d\x0a
[23d[M[39d(70) $GPGSV,3,1,11,30,63,130,34,13,61,257,32,28,57,207,34,26,33,227,29*7E\x0d\x0a
[23d[M[39d(66) $GPGSV,3,2,11,11,25,108,25,10,03,332,,17,50,344,,01,19,083,10*72\x0d\x0a
[23d[M[39d(53) $GPGSV,3,3,11,04,10,113,,05,04,282,10,19,03,143,*4A\x0d\x0a
[23d[M[39d(51) $GPGLL,2730.0350,S,15300.9642,E,020653.000,A,A*48\x0d\x0a
[23d[M[3;26H3[9;38H3[39d(66) $GPRMC,020653.000,A,2730.0350,S,15300.9642,E,0.00,,121214,,,A*64\x0d\x0a
[23d[M[39d(32) $GPVTG,,T,,M,0.00,N,0.0,K,A*13\x0d\x0a
[23d[M[9;68H4[39d(76) $GPGGA,020654.000,2730.0350,S,15300.9642,E,1,05,3.5,41.1,M,37.1,M,,0000*78\x0d\x0a
[23d[M[39d(49) $GPGSA,A,3,30,28,13,26,11,,,,,,,,4.5,3.5,2.8*30\x0d\x0a
[23d[M[12;18H3[39d(70) $GPGSV,3,1,11,30,63,130,34,13,61,257,32,28,57,207,33,26,33,227,29*79\x0d\x0a
[23d[M[39d(66) $GPGSV,3,2,11,11,25,108,25,10,03,332,,17,50,344,,01,19,083,10*72\x0d\x0a
[23d[M[39d(53) $GPGSV,3,3,11,04,10,113,,05,04,282,10,19,03,143,*4A\x0d\x0a
[23d[M[39d(51) $GPGLL,2730.0350,S,15300.9642,E,020654.000,A,A*4F\x0d\x0a
[23d[M[3;26H4[9;38H4[39d(66) $GPRMC,020654.000,A,2730.0350,S,15300.9642,E,0.00,,121214,,,A*63\x0d\x0a
[23d[M[39d(32) $GPVTG,,T,,M,0.00,N,0.0,K,A*13\x0d\x0a
[23d[M[9;68H5[39d(76) $GPGGA,020655.000,2730.0350,S,15300.9642,E,1,05,3.5,41.1,M,37.1,M,,0000*79\x0d\x0a
[23d[M[39d(49) $GPGSA,A,3,30,28,13,26,11,,,,,,,,4.5,3.5,2.8*30\x0d\x0a
[23d[M[39d(70) $GPGSV,3,1,11,30,63,130,34,13,61,257,32,28,57,207,33,26,33,227,29*79\x0d\x0a
[23d[M[39d(66) $GPGSV,3,2,11,11,25,108,25,10,03,332,,17,50,344,,01,19,083,10*72\x0d\x0a
[23d[M[39d(53) $GPGSV,3,3,11,04,10,113,,05,04,282,10,19,03,143,*4A\x0d\x0a
[23d[M[39d(51) $GPGLL,2730.0350,S,15300.9642,E,020655.000,A,A*4E\x0d\x0a
[23d[M[3;26H5[9;38H5[39d(66) $GPRMC,020655.000,A,2730.0350,S,15300.9642,E,0.00,,121214,,,A*62\x0d\x0a
[23d[M[39d(32) $GPVTG,,T,,M,0.00,N,0.0,K,A*13\x0d\x0a
[23d[M[9;68H6[39d(76) $GPGGA,020656.000,2730.0350,S,15300.9642,E,1,05,3.5,41.1,M,37.1,M,,0000*7A\x0d\x0a
[23d[M[39d(49) $GPGSA,A,3,30,28,13,26,11,,,,,,,,4.5,3.5,2.8*30\x0d\x0a
[23d[M[39d(70) $GPGSV,3,1,11,30,63,130,34,13,61,257,32,28,57,207,33,26,33,227,29*79\x0d\x0a
[23d[M[17;17H24[39d(66) $GPGSV,3,2,11,11,25,108,25,10,03,332,,17,50,344,,01,19,083,24*75\x0d\x0a
[23d[M[39d(53) $GPGSV,3,3,11,04,10,113,,05,04,282,10,19,03,143,*4A\x0d\x0a
[23d[M[39d(51) $GPGLL,2730.0350,S,15300.9642,E,020656.000,A,A*4D\x0d\x0a
[23d[M[3;26H6[9;38H6[39d(66) $GPRMC,020656.000,A,2730.0350,S,15300.9642,E,0.00,,121214,,,A*61\x0d\x0a
[23d[M[39d(32) $GPVTG,,T,,M,0.00,N,0.0,K,A*13\x0d\x0a
[23d[M[9;68H7[39d(76) $GPGGA,020657.000,2730.0350,S,15300.9642,E,1,05,3.5,41.1,M,37.1,M,,0000*7B\x0d\x0a
[23d[M[39d(49) $GPGSA,A,3,30,28,13,26,11,,,,,,,,4.5,3.5,2.8*30\x0d\x0a
[23d[M[39d(70) $GPGSV,3,1,11,30,63,130,34,13,61,257,32,28,57,207,33,26,33,227,29*79\x0d\x0a
[23d[M[39d(66) $GPGSV,3,2,11,11,25,108,25,10,03,332,,17,50,344,,01,19,083,24*75\x0d\x0a
[23d[M[39d(53) $GPGSV,3,3,11,04,10,113,,05,04,282,10,19,03,143,*4A\x0d\x0a
[23d[M[39d(51) $GPGLL,2730.0350,S,15300.9642,E,020657.000,A,A*4C\x0d\x0a
[23d[M[3;26H7[9;38H7[39d(66) $GPRMC,020657.000,A,2730.0350,S,15300.9642,E,0.00,,121214,,,A*60\x0d\x0a
[23d[M[39d(32) $GPVTG,,T,,M,0.00,N,0.0,K,A*13\x0d\x0a
[23d[M[9;68H8[39d(76) $GPGGA,020658.000,2730.0350,S,15300.9642,E,1,05,3.5,41.1,M,37.1,M,,0000*74\x0d\x0a
[23d[M[39d(49) $GPGSA,A,3,30,28,13,26,11,,,,,,,,4.5,3.5,2.8*30\x0d\x0a
[23d[M[39d(70) $GPGSV,3,1,11,30,63,130,34,13,61,257,32,28,57,207,33,26,33,227,29*79\x0d\x0a
[23d[M[39d(66) $GPGSV,3,2,11,11,25,108,25,10,03,332,,17,50,344,,01,19,083,24*75\x0d\x0a
[23d[M[39d(53) $GPGSV,3,3,11,04,10,113,,05,04,282,10,19,03,143,*4A\x0d\x0a
[23d[M[39d(51) $GPGLL,2730.0350,S,15300.9642,E,020658.000,A,A*43\x0d\x0a
[23d[M[3;26H8[9;38H8[39d(66) $GPRMC,020658.000,A,2730.0350,S,15300.9642,E,0.00,,121214,,,A*6F\x0d\x0a
[23d[M[39d(32) $GPVTG,,T,,M,0.00,N,0.0,K,A*13\x0d\x0a
[23d[M[9;68H9[39d(76) $GPGGA,020659.000,2730.0350,S,15300.9642,E,1,05,3.5,41.1,M,37.1,M,,0000*75\x0d\x0a
[23d[M[39d(49) $GPGSA,A,3,30,28,13,26,11,,,,,,,,4.5,3.5,2.8*30\x0d\x0a
[23d[M[39d(70) $GPGSV,3,1,11,30,63,130,34,13,61,257,32,28,57,207,33,26,33,227,29*79\x0d\x0a
[23d[M[39d(66) $GPGSV,3,2,11,11,25,108,25,10,03,332,,17,50,344,,01,19,083,24*75\x0d\x0a
[23d[M[39d(53) $GPGSV,3,3,11,04,10,113,,05,04,282,10,19,03,143,*4A\x0d\x0a
[23d[M[39d(51) $GPGLL,2730.0350,S,15300.9642,E,020659.000,A,A*42\x0d\x0a
[23d[M[3;26H9[9;38H9[39d(66) $GPRMC,020659.000,A,2730.0350,S,15300.9642,E,0.00,,121214,,,A*6E\x0d\x0a
[23d[M[39d(32) $GPVTG,,T,,M,0.00,N,0.0,K,A*13\x0d\x0a
[23d[M[9;66H700[39d(76) $GPGGA,020700.000,2730.0350,S,15300.9642,E,1,05,3.5,41.1,M,37.1,M,,0000*78\x0d\x0a
[23d[M[39d(49) $GPGSA,A,3,30,28,13,26,11,,,,,,,,4.5,3.5,2.8*30\x0d\x0a
[23d[M[39d(70) $GPGSV,3,1,11,30,63,130,34,13,61,257,32,28,57,207,33,26,33,227,29*79\x0d\x0a
[23d[M[39d(66) $GPGSV,3,2,11,11,25,108,25,10,03,332,,17,50,344,,01,19,083,24*75\x0d\x0a
[23d[M[39d(53) $GPGSV,3,3,11,04,10,113,,05,04,282,10,19,03,143,*4A\x0d\x0a
[23d[M[39d(51) $GPGLL,2730.0350,S,15300.9642,E,020700.000,A,A*4F\x0d\x0a
[23d[M[3;23H7:00[9;36H700[39d(66) $GPRMC,020700.000,A,2730.0350,S,15300.9642,E,0.00,,121214,,,A*63\x0d\x0a
[23d[M[39d(32) $GPVTG,,T,,M,0.00,N,0.0,K,A*13\x0d\x0a
[23d[M[9;68H1[39d(76) $GPGGA,020701.000,2730.0350,S,15300.9642,E,1,05,3.5,41.1,M,37.1,M,,0000*79\x0d\x0a
[23d[M[39d(49) $GPGSA,A,3,30,28,13,26,11,,,,,,,,4.5,3.5,2.8*30\x0d\x0a
[23d[M[39d(70) $GPGSV,3,1,11,30,63,130,34,13,61,257,32,28,57,207,33,26,33,227,29*79\x0d\x0a
[23d[M[17;18H3[39d(66) $GPGSV,3,2,11,11,25,108,25,10,03,332,,17,50,344,,01,19,083,23*72\x0d\x0a
[23d[M[39d(53) $GPGSV,3,3,11,04,10,113,,05,04,282,10,19,03,143,*4A\x0d\x0a
[23d[M[39d(51) $GPGLL,2730.0350,S,15300.9642,E,020701.000,A,A*4E\x0d\x0a
[23d[M[3;26H1[9;38H1[39d(66) $GPRMC,020701.000,A,2730.0350,S,15300.9642,E,0.00,,121214,,,A*62\x0d\x0a
[23d[M[39d(32) $GPVTG,,T,,M,0.00,N,0.0,K,A*13\x0d\x0a
[23d[M[9;68H2[39d(76) $GPGGA,020702.000,2730.0350,S,15300.9642,E,1,05,3.5,41.1,M,37.1,M,,0000*7A\x0d\x0a
[23d[M[39d(49) $GPGSA,A,3,30,28,13,26,11,,,,,,,,4.5,3.5,2.8*30\x0d\x0a
[23d[M[39d(70) $GPGSV,3,1,11,30,63,130,34,13,61,257,32,28,57,207,33,26,33,227,29*79\x0d\x0a
[23d[M[14;18H6

2[39d(68) $GPGSV,3,2,11,11,25,108,26,10,03,332,,17,50,344,20,01,19,083,23*73\x0d\x0a
[23d[M[39d(53) $GPGSV,3,3,11,04,10,113,,05,04,282,10,19,03,143,*4A\x0d\x0a
[23d[M[39d(51) $GPGLL,2730.0350,S,15300.9642,E,020702.000,A,A*4D\x0d\x0a
[23d[M[3;26H2[9;38H2[39d(66) $GPRMC,020702.000,A,2730.0350,S,15300.9642,E,0.00,,121214,,,A*61\x0d\x0a
[23d[M[39d(32) $GPVTG,,T,,M,0.00,N,0.0,K,A*13\x0d\x0a
[23d[M[9;68H3[39d(76) $GPGGA,020703.000,2730.0350,S,15300.9642,E,1,05,3.5,41.1,M,37.1,M,,0000*7B\x0d\x0a
[23d[M[39d(49) $GPGSA,A,3,30,28,13,26,11,,,,,,,,4.5,3.5,2.8*30\x0d\x0a
[23d[M[39d(70) $GPGSV,3,1,11,30,63,130,34,13,61,257,32,28,57,207,33,26,33,227,29*79\x0d\x0a
[23d[M[16;18H1[39d(68) $GPGSV,3,2,11,11,25,108,26,10,03,332,,17,50,344,21,01,19,083,23*72\x0d\x0a
[23d[M[39d(53) $GPGSV,3,3,11,04,10,113,,05,04,282,10,19,03,143,*4A\x0d\x0a
[23d[M[39d(51) $GPGLL,2730.0350,S,15300.9642,E,020703.000,A,A*4C\x0d\x0a
[23d[M[3;26H3[9;38H3[39d(66) $GPRMC,020703.000,A,2730.0350,S,15300.9642,E,0.00,,121214,,,A*60\x0d\x0a
[23d[M[39d(32) $GPVTG,,T,,M,0.00,N,0.0,K,A*13\x0d\x0a
[23d[M[9;68H4[39d(76) $GPGGA,020704.000,2730.0350,S,15300.9642,E,1,05,3.5,41.1,M,37.1,M,,0000*7C\x0d\x0a
[23d[M[39d(49) $GPGSA,A,3,30,28,13,26,11,,,,,,,,4.5,3.5,2.8*30\x0d\x0a
[23d[M[39d(70) $GPGSV,3,1,11,30,63,130,34,13,61,257,32,28,57,207,33,26,33,227,29*79\x0d\x0a
[23d[M[16;18H0[39d(68) $GPGSV,3,2,11,11,25,108,26,10,03,332,,17,50,344,20,01,19,083,23*73\x0d\x0a
[23d[M[39d(53) $GPGSV,3,3,11,04,10,113,,05,04,282,10,19,03,143,*4A\x0d\x0a
[23d[M[39d(51) $GPGLL,2730.0350,S,15300.9642,E,020704.000,A,A*4B\x0d\x0a
[23d[M[3;26H4[9;38H4[39d(66) $GPRMC,020704.000,A,2730.0350,S,15300.9642,E,0.00,,121214,,,A*67\x0d\x0a
[23d[M[39d(32) $GPVTG,,T,,M,0.00,N,0.0,K,A*13\x0d\x0a
[23d[M[9;68H5[39d(76) $GPGGA,020705.000,2730.0350,S,15300.9642,E,1,05,3.5,41.1,M,37.1,M,,0000*7D\x0d\x0a
[23d[M[39d(49) $GPGSA,A,3,30,28,13,26,11,,,,,,,,4.5,3.5,2.8*30\x0d\x0a
[23d[M[39d(70) $GPGSV,3,1,11,30,63,130,34,13,61,257,32,28,57,207,33,26,33,227,29*79\x0d\x0a
[23d[M[39d(68) $GPGSV,3,2,11,11,25,108,26,10,03,332,,17,50,344,20,01,19,083,23*73\x0d\x0a
[23d[M[19;17H [39d(51) $GPGSV,3,3,11,04,10,113,,05,04,282,,19,03,143,*4B\x0d\x0a
[23d[M[39d(51) $GPGLL,2730.0350,S,15300.9642,E,020705.000,A,A*4A\x0d\x0a
[23d[M[3;26H5[9;38H5[39d(66) $GPRMC,020705.000,A,2730.0350,S,15300.9642,E,0.00,,121214,,,A*66\x0d\x0a
[23d[M[39d(32) $GPVTG,,T,,M,0.00,N,0.0,K,A*13\x0d\x0a
[23d[M[9;68H6[39d(76) $GPGGA,020706.000,2730.0350,S,15300.9642,E,1,05,3.5,41.1,M,37.1,M,,0000*7E\x0d\x0a
[23d[M[39d(49) $GPGSA,A,3,30,28,13,26,11,,,,,,,,4.5,3.5,2.8*30\x0d\x0a
[23d[M[39d(70) $GPGSV,3,1,11,30,63,130,34,13,61,257,32,28,57,207,33,26,33,227,29*79\x0d\x0a
[23d[M[39d(68) $GPGSV,3,2,11,11,25,108,26,10,03,332,,17,50,344,20,01,19,083,23*73\x0d\x0a
[23d[M[39d(51) $GPGSV,3,3,11,04,10,113,,05,04,282,,19,03,143,*4B\x0d\x0a
[23d[M[39d(51) $GPGLL,2730.0350,S,15300.9642,E,020706.000,A,A*49\x0d\x0a
[23d[M[3;26H6[9;38H6[39d(66) $GPRMC,020706.000,A,2730.0350,S,15300.9642,E,0.00,,121214,,,A*65\x0d\x0a
[23d[M[39d(32) $GPVTG,,T,,M,0.00,N,0.0,K,A*13\x0d\x0a
[23d[M[9;68H7[39d(76) $GPGGA,020707.000,2730.0350,S,15300.9642,E,1,05,3.5,41.1,M,37.1,M,,0000*7F\x0d\x0a
[23d[M[39d(49) $GPGSA,A,3,30,28,13,26,11,,,,,,,,4.5,3.5,2.8*30\x0d\x0a
[23d[M[39d(70) $GPGSV,3,1,11,30,63,130,34,13,61,257,32,28,57,207,33,26,33,227,29*79\x0d\x0a
[23d[M[17;17H19[39d(68) $GPGSV,3,2,11,11,25,108,26,10,03,332,,17,50,344,20,01,19,083,19*7A\x0d\x0a
[23d[M[39d(51) $GPGSV,3,3,11,04,10,113,,05,04,282,,19,03,143,*4B\x0d\x0a
[23d[M[39d(51) $GPGLL,2730.0350,S,15300.9642,E,020707.000,A,A*48\x0d\x0a
[23d[M[3;26H7[9;38H7[39d(66) $GPRMC,020707.000,A,2730.0350,S,15300.9642,E,0.00,,121214,,,A*64\x0d\x0a
[23d[M[39d(32) $GPVTG,,T,,M,0.00,N,0.0,K,A*13\x0d\x0a
[23d[M[9;68H8[39d(76) $GPGGA,020708.000,2730.0350,S,15300.9642,E,1,05,3.5,41.1,M,37.1,M,,0000*70\x0d\x0a
[23d[M[39d(49) $GPGSA,A,3,30,28,13,26,11,,,,,,,,4.5,3.5,2.8*30\x0d\x0a
[23d[M[11;11H8

8[39d(70) $GPGSV,3,1,11,30,63,130,34,13,61,258,32,28,57,207,33,26,33,228,29*79\x0d\x0a
[23d[M[16;17H19[17;11H4 19   7[39d(68) $GPGSV,3,2,11,11,25,108,26,10,03,332,,17,50,344,19,01,19,084,07*78\x0d\x0a
[23d[M[39d(51) $GPGSV,3,3,11,04,10,113,,05,04,282,,19,03,143,*4B\x0d\x0a
[23d[M[39d(51) $GPGLL,2730.0350,S,15300.9642,E,020708.000,A,A*47\x0d\x0a
[23d[M[3;26H8[9;38H8[39d(66) $GPRMC,020708.000,A,2730.0350,S,15300.9642,E,0.00,,121214,,,A*6B\x0d\x0a
[23d[M[39d(32) $GPVTG,,T,,M,0.00,N,0.0,K,A*13\x0d\x0a
[23d[M[9;68H9[39d(76) $GPGGA,020709.000,2730.0350,S,15300.9642,E,1,05,3.5,41.1,M,37.1,M,,0000*71\x0d\x0a
[23d[M[39d(49) $GPGSA,A,3,30,28,13,26,11,,,,,,,,4.5,3.5,2.8*30\x0d\x0a
[23d[M[39d(70) $GPGSV,3,1,11,30,63,130,34,13,61,258,32,28,57,207,33,26,33,228,29*79\x0d\x0a
[23d[M[39d(68) $GPGSV,3,2,11,11,25,108,26,10,03,332,,17,50,344,19,01,19,084,07*78\x0d\x0a
[23d[M[39d(51) $GPGSV,3,3,11,04,10,113,,05,04,282,,19,03,143,*4B\x0d\x0a
[23d[M[39d(51) $GPGLL,2730.0350,S,15300.9642,E,020709.000,A,A*46\x0d\x0a
[23d[M[3;26H9[9;38H9[39d(66) $GPRMC,020709.000,A,2730.0350,S,15300.9642,E,0.00,,121214,,,A*6A\x0d\x0a
[23d[M[39d(32) $GPVTG,,T,,M,0.00,N,0.0,K,A*13\x0d\x0a
[23d[M[9;67H10[39d(76) $GPGGA,020710.000,2730.0350,S,15300.9642,E,1,05,3.5,41.1,M,37.1,M,,0000*79\x0d\x0a
[23d[M[39d(49) $GPGSA,A,3,30,28,13,26,11,,,,,,,,4.5,3.5,2.8*30\x0d\x0a
[23d[M[39d(70) $GPGSV,3,1,11,30,63,130,34,13,61,258,32,28,57,207,33,26,33,228,29*79\x0d\x0a
[23d[M[14;18H7[39d(68) $GPGSV,3,2,11,11,25,108,27,10,03,332,,17,50,344,19,01,19,084,07*79\x0d\x0a
[23d[M[39d(51) $GPGSV,3,3,11,04,10,113,,05,04,282,,19,03,143,*4B\x0d\x0a
[23d[M[39d(51) $GPGLL,2730.0350,S,15300.9642,E,020710.000,A,A*4E\x0d\x0a
[23d[M[3;25H10[9;37H10[39d(66) $GPRMC,020710.000,A,2730.0350,S,15300.9642,E,0.00,,121214,,,A*62\x0d\x0a
[23d[M[39d(32) $GPVTG,,T,,M,0.00,N,0.0,K,A*13\x0d\x0a
[23d[M[9;68H1[39d(76) $GPGGA,020711.000,2730.0350,S,15300.9642,E,1,05,3.5,41.1,M,37.1,M,,0000*78\x0d\x0a
[23d[M[39d(49) $GPGSA,A,3,30,28,13,26,11,,,,,,,,4.5,3.5,2.8*30\x0d\x0a
[23d[M[39d(70) $GPGSV,3,1,11,30,63,130,34,13,61,258,32,28,57,207,33,26,33,228,29*79\x0d\x0a
[23d[M[39d(68) $GPGSV,3,2,11,11,25,108,27,10,03,332,,17,50,344,19,01,19,084,07*79\x0d\x0a
[23d[M[39d(51) $GPGSV,3,3,11,04,10,113,,05,04,282,,19,03,143,*4B\x0d\x0a
[23d[M[39d(51) $GPGLL,2730.0350,S,15300.9642,E,020711.000,A,A*4F\x0d\x0a
[23d[M[3;26H1[9;38H1[39d(66) $GPRMC,020711.000,A,2730.0350,S,15300.9642,E,0.00,,121214,,,A*63\x0d\x0a
[23d[M[39d(32) $GPVTG,,T,,M,0.00,N,0.0,K,A*13\x0d\x0a
[23d[M[9;68H2[39d(76) $GPGGA,020712.000,2730.0350,S,15300.9642,E,1,05,3.5,41.1,M,37.1,M,,0000*7B\x0d\x0a
[23d[M[39d(49) $GPGSA,A,3,30,28,13,26,11,,,,,,,,4.5,3.5,2.8*30\x0d\x0a
[23d[M[39d(70) $GPGSV,3,1,11,30,63,130,34,13,61,258,32,28,57,207,33,26,33,228,29*79\x0d\x0a
[23d[M[39d(68) $GPGSV,3,2,11,11,25,108,27,10,03,332,,17,50,344,19,01,19,084,07*79\x0d\x0a
[23d[M[39d(51) $GPGSV,3,3,11,04,10,113,,05,04,282,,19,03,143,*4B\x0d\x0a
[23d[M[39d(51) $GPGLL,2730.0350,S,15300.9642,E,020712.000,A,A*4C\x0d\x0a
[23d[M[3;26H2[9;38H2[39d(66) $GPRMC,020712.000,A,2730.0350,S,15300.9642,E,0.00,,121214,,,A*60\x0d\x0a
[23d[M[39d(32) $GPVTG,,T,,M,0.00,N,0.0,K,A*13\x0d\x0a
[23d[M[9;68H3[39d(76) $GPGGA,020713.000,2730.0350,S,15300.9642,E,1,05,3.5,41.1,M,37.1,M,,0000*7A\x0d\x0a
[23d[M[39d(49) $GPGSA,A,3,30,28,13,26,11,,,,,,,,4.5,3.5,2.8*30\x0d\x0a
[23d[M[39d(70) $GPGSV,3,1,11,30,63,130,34,13,61,258,32,28,57,207,33,26,33,228,29*79\x0d\x0a
[23d[M[39d(68) $GPGSV,3,2,11,11,25,108,27,10,03,332,,17,50,344,19,01,19,084,07*79\x0d\x0a
[23d[M[39d(51) $GPGSV,3,3,11,04,10,113,,05,04,282,,19,03,143,*4B\x0d\x0a
[23d[M[39d(51) $GPGLL,2730.0350,S,15300.9642,E,020713.000,A,A*4D\x0d\x0a
[23d[M[3;26H3[9;38H3[39d(66) $GPRMC,020713.000,A,2730.0350,S,15300.9642,E,0.00,,121214,,,A*61\x0d\x0a
[23d[M[39d(32) $GPVTG,,T,,M,0.00,N,0.0,K,A*13\x0d\x0a
[23d[M[9;68H4[39d(76) $GPGGA,020714.000,2730.0350,S,15300.9642,E,1,05,3.5,41.1,M,37.1,M,,0000*7D\x0d\x0a
[23d[M[39d(49) $GPGSA,A,3,30,28,13,26,11,,,,,,,,4.5,3.5,2.8*30\x0d\x0a
[23d[M[39d(70) $GPGSV,3,1,11,30,63,130,34,13,61,258,32,28,57,207,33,26,33,228,29*79\x0d\x0a
[23d[M[14;11H9[39d(68) $GPGSV,3,2,11,11,25,109,27,10,03,332,,17,50,344,19,01,19,084,07*78\x0d\x0a
[23d[M[39d(51) $GPGSV,3,3,11,04,10,113,,05,04,282,,19,03,143,*4B\x0d\x0a
[23d[M[39d(51) $GPGLL,2730.0350,S,15300.9642,E,020714.000,A,A*4A\x0d\x0a
[23d[M[3;26H4[9;38H4[39d(66) $GPRMC,020714.000,A,2730.0350,S,15300.9642,E,0.00,,121214,,,A*66\x0d\x0a
[23d[M[39d(32) $GPVTG,,T,,M,0.00,N,0.0,K,A*13\x0d\x0a
[23d[M[9;68H5[39d(76) $GPGGA,020715.000,2730.0350,S,15300.9642,E,1,05,3.5,41.1,M,37.1,M,,0000*7C\x0d\x0a
[23d[M[39d(49) $GPGSA,A,3,30,28,13,26,11,,,,,,,,4.5,3.5,2.8*30\x0d\x0a
[23d[M[39d(70) $GPGSV,3,1,11,30,63,130,34,13,61,258,32,28,57,207,33,26,33,228,29*79\x0d\x0a
[23d[M[39d(68) $GPGSV,3,2,11,11,25,109,27,10,03,332,,17,50,344,19,01,19,084,07*78\x0d\x0a
[23d[M[39d(51) $GPGSV,3,3,11,04,10,113,,05,04,282,,19,03,143,*4B\x0d\x0a
[23d[M[39d(51) $GPGLL,2730.0350,S,15300.9642,E,020715.000,A,A*4B\x0d\x0a
[23d[M[3;26H5[9;38H5[39d(66) $GPRMC,020715.000,A,2730.0350,S,15300.9642,E,0.00,,121214,,,A*67\x0d\x0a
[23d[M[39d(32) $GPVTG,,T,,M,0.00,N,0.0,K,A*13\x0d\x0a
[23d[M[9;68H6[39d(76) $GPGGA,020716.000,2730.0350,S,15300.9642,E,1,05,3.5,41.1,M,37.1,M,,0000*7F\x0d\x0a
[23d[M[39d(49) $GPGSA,A,3,30,28,13,26,11,,,,,,,,4.5,3.5,2.8*30\x0d\x0a
[23d[M[39d(70) $GPGSV,3,1,11,30,63,130,34,13,61,258,32,28,57,207,33,26,33,228,29*79\x0d\x0a
[23d[M[14;18H8[39d(68) $GPGSV,3,2,11,11,25,109,28,10,03,332,,17,50,344,19,01,19,084,07*77\x0d\x0a
[23d[M[39d(51) $GPGSV,3,3,11,04,10,113,,05,04,282,,19,03,143,*4B\x0d\x0a
[23d[M[39d(51) $GPGLL,2730.0350,S,15300.9642,E,020716.000,A,A*48\x0d\x0a
[23d[M[3;26H6[9;38H6[39d(66) $GPRMC,020716.000,A,2730.0350,S,15300.9642,E,0.00,,121214,,,A*64\x0d\x0a
[23d[M[39d(32) $GPVTG,,T,,M,0.00,N,0.0,K,A*13\x0d\x0a
[23d[M[9;68H7[39d(76) $GPGGA,020717.000,2730.0350,S,15300.9642,E,1,05,3.5,41.1,M,37.1,M,,0000*7E\x0d\x0a
[23d[M[39d(49) $GPGSA,A,3,30,28,13,26,11,,,,,,,,4.5,3.5,2.8*30\x0d\x0a
[23d[M[39d(70) $GPGSV,3,1,11,30,63,130,34,13,61,258,32,28,57,207,33,26,33,228,29*79\x0d\x0a
[23d[M[16;18H7[39d(68) $GPGSV,3,2,11,11,25,109,28,10,03,332,,17,50,344,17,01,19,084,07*79\x0d\x0a
[23d[M[39d(51) $GPGSV,3,3,11,04,10,113,,05,04,282,,19,03,143,*4B\x0d\x0a
[23d[M[39d(51) $GPGLL,2730.0350,S,15300.9642,E,020717.000,A,A*49\x0d\x0a
[23d[M[3;26H7[9;38H7[39d(66) $GPRMC,020717.000,A,2730.0350,S,15300.9642,E,0.00,,121214,,,A*65\x0d\x0a
[23d[M[39d(32) $GPVTG,,T,,M,0.00,N,0.0,K,A*13\x0d\x0a
[23d[M[9;68H8[39d(76) $GPGGA,020718.000,2730.0350,S,15300.9642,E,1,05,3.5,41.1,M,37.1,M,,0000*71\x0d\x0a
[23d[M[39d(49) $GPGSA,A,3,30,28,13,26,11,,,,,,,,4.5,3.5,2.8*30\x0d\x0a
[23d[M[11;18H3[39d(70) $GPGSV,3,1,11,30,63,130,34,13,61,258,33,28,57,207,33,26,33,228,29*78\x0d\x0a
[23d[M[39d(68) $GPGSV,3,2,11,11,25,109,28,10,03,332,,17,50,344,17,01,19,084,07*79\x0d\x0a
[23d[M[39d(51) $GPGSV,3,3,11,04,10,113,,05,04,282,,19,03,143,*4B\x0d\x0a
[40;1H[?1049l[?1l>