$GPRMC,055419.00,A,2730.04512,S,15300.93593,E,0.072,,101214,,,A*65
$GPVTG,,T,,M,0.072,N,0.133,K,A*27
$GPGGA,055419.00,2730.04512,S,15300.93593,E,1,07,1.16,9.8,M,38.5,M,,*45
$GPGSA,A,3,06,02,17,24,12,28,10,,,,,,2.08,1.16,1.73*07
$GPGSV,3,1,10,02,53,348,33,06,69,095,37,10,15,050,20,12,24,224,35*75
$GPGSV,3,2,10,15,09,297,06,17,28,135,36,20,00,131,,24,46,240,41*76
$GPGSV,3,3,10,26,07,335,,28,16,077,27*76
$GPGLL,2730.04512,S,15300.93593,E,055419.00,A,A*7E
$GPRMC,055420.00,A,2730.04514,S,15300.93595,E,0.122,,101214,,,A*6B
$GPVTG,,T,,M,0.122,N,0.226,K,A*24
$GPGGA,055420.00,2730.04514,S,15300.93595,E,1,07,1.16,10.0,M,38.5,M,,*7F
$GPGSA,A,3,06,02,17,24,12,28,10,,,,,,2.08,1.16,1.73*07
$GPGSV,3,1,10,02,53,348,33,06,69,095,38,10,15,050,20,12,24,224,35*7A
$GPGSV,3,2,10,15,09,297,06,17,28,135,36,20,00,131,,24,46,240,41*76
$GPGSV,3,3,10,26,07,335,,28,16,077,28*79
$GPGLL,2730.04514,S,15300.93595,E,055420.00,A,A*74
$GPRMC,055421.00,A,2730.04515,S,15300.93596,E,0.095,,101214,,,A*65
$GPVTG,,T,,M,0.095,N,0.177,K,A*2E
$GPGGA,055421.00,2730.04515,S,15300.93596,E,1,07,1.16,10.0,M,38.5,M,,*7C
$GPGSA,A,3,06,02,17,24,12,28,10,,,,,,2.08,1.16,1.73*07
$GPGSV,3,1,10,02,53,348,33,06,69,095,38,10,15,050,18,12,24,224,34*70
$GPGSV,3,2,10,15,09,297,06,17,28,135,36,20,00,131,,24,46,240,41*76
$GPGSV,3,3,10,26,07,335,,28,16,077,27*76
$GPGLL,2730.04515,S,15300.93596,E,055421.00,A,A*77
$GPRMC,055422.00,A,2730.04511,S,15300.93597,E,0.024,,101214,,,A*69
$GPVTG,,T,,M,0.024,N,0.044,K,A*25
$GPGGA,055422.00,2730.04511,S,15300.93597,E,1,07,1.16,9.9,M,38.5,M,,*4B
$GPGSA,A,3,06,02,17,24,12,28,10,,,,,,2.08,1.16,1.73*07
$GPGSV,3,1,10,02,53,348,32,06,69,095,37,10,15,050,17,12,24,224,34*71
$GPGSV,3,2,10,15,09,297,07,17,28,135,36,20,00,131,,24,46,240,41*77
$GPGSV,3,3,10,26,07,335,,28,16,077,27*76
$GPGLL,2730.04511,S,15300.93597,E,055422.00,A,A*71
$GPRMC,055423.00,A,2730.04513,S,15300.93598,E,0.126,,101214,,,A*66
$GPVTG,,T,,M,0.126,N,0.233,K,A*24
$GPGGA,055423.00,2730.04513,S,15300.93598,E,1,07,1.16,10.1,M,38.5,M,,*77
$GPGSA,A,3,06,02,17,24,12,28,10,,,,,,2.08,1.16,1.73*07
$GPGSV,3,1,10,02,53,348,32,06,69,095,37,10,15,050,17,12,24,224,34*71
$GPGSV,3,2,10,15,09,297,07,17,28,135,36,20,00,131,,24,46,240,41*77
$GPGSV,3,3,10,26,07,335,,28,16,077,26*77
$GPGLL,2730.04513,S,15300.93598,E,055423.00,A,A*7D
$GPRMC,055424.00,A,2730.04512,S,15300.93600,E,0.054,,101214,,,A*66
$GPVTG,,T,,M,0.054,N,0.100,K,A*23
$GPGGA,055424.00,2730.04512,S,15300.93600,E,1,07,1.16,10.0,M,38.5,M,,*72
$GPGSA,A,3,06,02,17,24,12,28,10,,,,,,2.08,1.16,1.73*07
$GPGSV,3,1,10,02,53,348,32,06,69,095,37,10,15,050,19,12,24,224,34*7F
$GPGSV,3,2,10,15,09,297,07,17,28,135,34,20,00,131,,24,46,240,41*75
$GPGSV,3,3,10,26,07,335,,28,16,077,26*77
$GPGLL,2730.04512,S,15300.93600,E,055424.00,A,A*79
$GPRMC,055425.00,A,2730.04509,S,15300.93602,E,0.023,,101214,,,A*6F
$GPVTG,,T,,M,0.023,N,0.043,K,A*25
$GPGGA,055425.00,2730.04509,S,15300.93602,E,1,07,1.16,9.8,M,38.5,M,,*4B
$GPGSA,A,3,06,02,17,24,12,28,10,,,,,,2.08,1.16,1.73*07
$GPGSV,3,1,10,02,53,348,33,06,69,095,37,10,15,050,20,12,24,224,34*74
$GPGSV,3,2,10,15,09,297,07,17,28,135,34,20,00,131,,24,46,240,41*75
$GPGSV,3,3,10,26,07,335,,28,16,077,26*77
$GPGLL,2730.04509,S,15300.93602,E,055425.00,A,A*70
$GPRMC,055426.00,A,2730.04510,S,15300.93605,E,0.101,,101214,,,A*62
$GPVTG,,T,,M,0.101,N,0.187,K,A*2D
$GPGGA,055426.00,2730.04510,S,15300.93605,E,1,07,1.16,9.8,M,38.5,M,,*47
$GPGSA,A,3,06,02,17,24,12,28,10,,,,,,2.08,1.16,1.73*07
$GPGSV,3,1,10,02,53,348,32,06,69,095,37,10,15,050,20,12,24,224,34*75
$GPGSV,3,2,10,15,09,297,07,17,28,135,34,20,00,131,,24,46,240,41*75
$GPGSV,3,3,10,26,07,335,,28,16,077,26*77
$GPGLL,2730.04510,S,15300.93605,E,055426.00,A,A*7C
$GPRMC,055427.00,A,2730.04509,S,15300.93606,E,0.046,,101214,,,A*6A
$GPVTG,,T,,M,0.046,N,0.085,K,A*2C
$GPGGA,055427.00,2730.04509,S,15300.93606,E,1,07,1.16,9.7,M,38.5,M,,*42
$GPGSA,A,3,06,02,17,24,12,28,10,,,,,,2.08,1.16,1.73*07
$GPGSV,3,1,10,02,53,348,32,06,69,095,38,10,15,050,21,12,24,224,34*7B
$GPGSV,3,2,10,15,09,297,,17,28,135,34,20,00,131,,24,46,240,41*72
$GPGSV,3,3,10,26,07,335,,28,16,077,26*77
$GPGLL,2730.04509,S,15300.93606,E,055427.00,A,A*76
$GPRMC,055428.00,A,2730.04505,S,15300.93605,E,0.016,,101214,,,A*6F
$GPVTG,,T,,M,0.016,N,0.030,K,A*27
$GPGGA,055428.00,2730.04505,S,15300.93605,E,1,07,1.16,9.6,M,38.5,M,,*43
$GPGSA,A,3,06,02,17,24,12,28,10,,,,,,2.08,1.16,1.73*07
$GPGSV,3,1,10,02,53,348,31,06,69,095,38,10,15,050,20,12,24,224,34*79
$GPGSV,3,2,10,15,09,297,,17,28,135,38,20,00,131,,24,46,240,41*7E
$GPGSV,3,3,10,26,07,335,,28,16,077,25*74
$GPGLL,2730.04505,S,15300.93605,E,055428.00,A,A*76
$GPRMC,055429.00,A,2730.04502,S,15300.93603,E,0.019,,101214,,,A*60
$GPVTG,,T,,M,0.019,N,0.035,K,A*2D
$GPGGA,055429.00,2730.04502,S,15300.93603,E,1,07,1.16,9.5,M,38.5,M,,*40
$GPGSA,A,3,06,02,17,24,12,28,10,,,,,,2.08,1.16,1.73*07
$GPGSV,3,1,10,02,53,348,31,06,69,095,38,10,15,050,19,12,24,224,35*72
$GPGSV,3,2,10,15,09,297,,17,28,135,36,20,00,131,,24,46,240,40*71
$GPGSV,3,3,10,26,07,335,,28,16,077,25*74
$GPGLL,2730.04502,S,15300.93603,E,055429.00,A,A*76
$GPRMC,055430.00,A,2730.04500,S,15300.93601,E,0.035,,101214,,,A*66
$GPVTG,,T,,M,0.035,N,0.065,K,A*26
$GPGGA,055430.00,2730.04500,S,15300.93601,E,1,07,1.16,9.4,M,38.5,M,,*49
$GPGSA,A,3,06,02,17,24,12,28,10,,,,,,2.08,1.16,1.73*07
$GPGSV,3,1,10,02,53,348,33,06,69,095,39,10,15,050,21,12,24,224,35*7A
$GPGSV,3,2,10,15,09,297,,17,28,135,35,20,00,131,,24,46,240,41*73
$GPGSV,3,3,10,26,07,335,,28,16,077,26*77
$GPGLL,2730.04500,S,15300.93601,E,055430.00,A,A*7E
$GPRMC,055431.00,A,2730.04496,S,15300.93601,E,0.014,,101214,,,A*6A
$GPVTG,,T,,M,0.014,N,0.026,K,A*22
$GPGGA,055431.00,2730.04496,S,15300.93601,E,1,07,1.16,9.2,M,38.5,M,,*40
$GPGSA,A,3,06,02,17,24,12,28,10,,,,,,2.08,1.16,1.73*07
$GPGSV,3,1,10,02,53,348,31,06,69,095,39,10,15,050,24,12,24,224,37*7F
$GPGSV,3,2,10,15,09,297,,17,28,135,35,20,00,131,,24,46,240,41*73
$GPGSV,3,3,10,26,07,335,,28,16,077,28*79
$GPGLL,2730.04496,S,15300.93601,E,055431.00,A,A*71
$GPRMC,055432.00,A,2730.04496,S,15300.93600,E,0.018,,101214,,,A*64
$GPVTG,,T,,M,0.018,N,0.034,K,A*2D
$GPGGA,055432.00,2730.04496,S,15300.93600,E,1,07,1.16,9.2,M,38.5,M,,*42
$GPGSA,A,3,06,02,17,24,12,28,10,,,,,,2.08,1.16,1.73*07
$GPGSV,3,1,10,02,53,348,31,06,69,095,38,10,15,050,24,12,24,224,37*7E
$GPGSV,3,2,10,15,09,297,,17,28,135,35,20,00,131,,24,46,240,40*72
$GPGSV,3,3,10,26,07,335,,28,16,077,28*79
$GPGLL,2730.04496,S,15300.93600,E,055432.00,A,A*73
$GPRMC,055433.00,A,2730.04494,S,15300.93598,E,0.006,,101214,,,A*6A
$GPVTG,,T,,M,0.006,N,0.011,K,A*25
$GPGGA,055433.00,2730.04494,S,15300.93598,E,1,07,1.16,9.1,M,38.5,M,,*40
$GPGSA,A,3,06,02,17,24,12,28,10,,,,,,2.08,1.16,1.73*07
$GPGSV,3,1,10,02,53,348,32,06,69,095,38,10,15,050,26,12,24,224,36*7E
$GPGSV,3,2,10,15,09,297,,17,28,135,36,20,00,131,,24,46,240,40*71
$GPGSV,3,3,10,26,07,335,,28,16,077,29*78
$GPGLL,2730.04494,S,15300.93598,E,055433.00,A,A*72
$GPRMC,055434.00,A,2730.04494,S,15300.93595,E,0.023,,101214,,,A*67
$GPVTG,,T,,M,0.023,N,0.043,K,A*25
$GPGGA,055434.00,2730.04494,S,15300.93595,E,1,07,1.16,9.0,M,38.5,M,,*4B
$GPGSA,A,3,06,02,17,24,12,28,10,,,,,,2.08,1.16,1.73*07
$GPGSV,3,1,10,02,53,348,32,06,69,095,39,10,15,050,25,12,24,224,35*7F
$GPGSV,3,2,10,15,09,297,,17,28,135,36,20,00,131,,24,46,240,40*71
$GPGSV,3,3,10,26,07,335,,28,16,077,29*78
$GPGLL,2730.04494,S,15300.93595,E,055434.00,A,A*78
$GPRMC,055435.00,A,2730.04491,S,15300.93591,E,0.017,,101214,,,A*60
$GPVTG,,T,,M,0.017,N,0.032,K,A*24
$GPGGA,055435.00,2730.04491,S,15300.93591,E,1,07,1.16,8.8,M,38.5,M,,*42
$GPGSA,A,3,06,02,17,24,12,28,10,,,,,,2.08,1.16,1.73*07
$GPGSV,3,1,10,02,53,348,31,06,69,095,39,10,15,050,25,12,24,224,35*7C
$GPGSV,3,2,10,15,09,297,,17,28,135,36,20,00,131,,24,46,240,40*71
$GPGSV,3,3,10,26,07,335,,28,16,077,28*79
$GPGLL,2730.04491,S,15300.93591,E,055435.00,A,A*78
$GPRMC,055436.00,A,2730.04488,S,15300.93587,E,0.023,,101214,,,A*6B
$GPVTG,,T,,M,0.023,N,0.042,K,A*24
$GPGGA,055436.00,2730.04488,S,15300.93587,E,1,07,1.16,8.6,M,38.5,M,,*40
$GPGSA,A,3,06,02,17,24,12,28,10,,,,,,2.08,1.16,1.73*07
$GPGSV,3,1,10,02,53,348,30,06,69,095,39,10,15,050,26,12,24,224,36*7D
$GPGSV,3,2,10,15,09,297,,17,28,135,36,20,00,131,,24,46,240,40*71
$GPGSV,3,3,10,26,07,335,,28,16,077,28*79
$GPGLL,2730.04488,S,15300.93587,E,055436.00,A,A*74
$GPRMC,055437.00,A,2730.04486,S,15300.93585,E,0.002,,101214,,,A*65
$GPVTG,,T,,M,0.002,N,0.003,K,A*22
$GPGGA,055437.00,2730.04486,S,15300.93585,E,1,07,1.16,8.5,M,38.5,M,,*4E
$GPGSA,A,3,06,02,17,24,12,28,10,,,,,,2.08,1.16,1.73*07
$GPGSV,3,1,10,02,53,348,31,06,69,095,39,10,15,050,26,12,24,224,36*7C
$GPGSV,3,2,10,15,09,297,,17,28,135,37,20,00,131,,24,46,240,40*70
$GPGSV,3,3,10,26,07,335,,28,16,077,28*79
$GPGLL,2730.04486,S,15300.93585,E,055437.00,A,A*79
$GPRMC,055438.00,A,2730.04484,S,15300.93585,E,0.012,,101214,,,A*69
$GPVTG,,T,,M,0.012,N,0.023,K,A*21
$GPGGA,055438.00,2730.04484,S,15300.93585,E,1,07,1.16,8.4,M,38.5,M,,*42
$GPGSA,A,3,06,02,17,24,12,28,10,,,,,,2.08,1.16,1.73*07
$GPGSV,3,1,10,02,53,348,32,06,69,095,39,10,15,050,27,12,24,224,36*7E
$GPGSV,3,2,10,15,09,297,,17,28,135,37,20,00,131,,24,46,240,41*71
$GPGSV,3,3,10,26,07,335,,28,16,077,28*79
$GPGLL,2730.04484,S,15300.93585,E,055438.00,A,A*74
$GPRMC,055439.00,A,2730.04485,S,15300.93584,E,0.029,,101214,,,A*60
$GPVTG,,T,,M,0.029,N,0.054,K,A*29
$GPGGA,055439.00,2730.04485,S,15300.93584,E,1,07,1.16,8.3,M,38.5,M,,*44
$GPGSA,A,3,06,02,17,24,12,28,10,,,,,,2.08,1.16,1.73*07
$GPGSV,3,1,10,02,53,348,32,06,69,095,39,10,15,050,27,12,24,224,36*7E
$GPGSV,3,2,10,15,09,297,,17,28,135,37,20,00,131,,24,46,240,41*71
$GPGSV,3,3,10,26,07,335,,28,16,077,27*76
$GPGLL,2730.04485,S,15300.93584,E,055439.00,A,A*75
$GPRMC,055440.00,A,2730.04483,S,15300.93584,E,0.036,,101214,,,A*66
$GPVTG,,T,,M,0.036,N,0.067,K,A*27
$GPGGA,055440.00,2730.04483,S,15300.93584,E,1,07,1.16,8.2,M,38.5,M,,*4D
$GPGSA,A,3,06,02,17,24,12,28,10,,,,,,2.08,1.16,1.73*07
$GPGSV,3,1,10,02,53,348,32,06,69,095,39,10,15,050,27,12,24,224,37*7F
$GPGSV,3,2,10,15,09,297,,17,28,135,37,20,00,131,,24,46,240,41*71
$GPGSV,3,3,10,26,07,335,,28,16,077,26*77
$GPGLL,2730.04483,S,15300.93584,E,055440.00,A,A*7D
$GPRMC,055441.00,A,2730.04484,S,15300.93583,E,0.048,,101214,,,A*6E
$GPVTG,,T,,M,0.048,N,0.089,K,A*2E
$GPGGA,055441.00,2730.04484,S,15300.93583,E,1,07,1.16,8.1,M,38.5,M,,*4F
$GPGSA,A,3,06,02,17,24,12,28,10,,,,,,2.08,1.16,1.73*07
$GPGSV,3,1,10,02,53,348,34,06,69,095,39,10,15,050,28,12,24,224,36*77
$GPGSV,3,2,10,15,09,297,,17,28,135,37,20,00,131,,24,46,240,41*71
$GPGSV,3,3,10,26,07,335,,28,16,077,26*77
$GPGLL,2730.04484,S,15300.93583,E,055441.00,A,A*7C
$GPRMC,055442.00,A,2730.04482,S,15300.93581,E,0.017,,101214,,,A*63
$GPVTG,,T,,M,0.017,N,0.031,K,A*27
$GPGGA,055442.00,2730.04482,S,15300.93581,E,1,07,1.16,7.9,M,38.5,M,,*4F
$GPGSA,A,3,06,02,17,24,12,28,10,,,,,,2.08,1.16,1.73*07
$GPGSV,3,1,10,02,53,348,33,06,69,095,39,10,15,050,27,12,24,224,36*7F
$GPGSV,3,2,10,15,09,297,,17,28,135,37,20,00,131,,24,46,240,41*71
$GPGSV,3,3,10,26,07,335,,28,16,077,26*77
$GPGLL,2730.04482,S,15300.93581,E,055442.00,A,A*7B
$GPRMC,055443.00,A,2730.04480,S,15300.93579,E,0.042,,101214,,,A*67
$GPVTG,,T,,M,0.042,N,0.078,K,A*2A
$GPGGA,055443.00,2730.04480,S,15300.93579,E,1,07,1.17,7.7,M,38.5,M,,*44
$GPGSA,A,3,06,02,17,24,12,28,10,,,,,,2.08,1.17,1.73*06
$GPGSV,3,1,10,02,53,348,33,06,69,095,39,10,15,050,27,12,24,224,36*7F
$GPGSV,3,2,10,15,09,297,,17,28,135,37,20,00,131,,24,46,240,41*71
$GPGSV,3,3,10,26,07,335,,28,16,077,26*77
$GPGLL,2730.04480,S,15300.93579,E,055443.00,A,A*7F
$GPRMC,055444.00,A,2730.04480,S,15300.93578,E,0.057,,101214,,,A*65
$GPVTG,,T,,M,0.057,N,0.105,K,A*25
$GPGGA,055444.00,2730.04480,S,15300.93578,E,1,07,1.17,7.6,M,38.5,M,,*43
$GPGSA,A,3,06,02,17,24,12,28,10,,,,,,2.08,1.17,1.73*06
$GPGSV,3,1,10,02,53,348,33,06,69,095,38,10,15,050,27,12,24,224,38*70
$GPGSV,3,2,10,15,09,297,,17,28,135,36,20,00,131,,24,46,240,41*70
$GPGSV,3,3,10,26,07,335,,28,16,077,27*76
$GPGLL,2730.04480,S,15300.93578,E,055444.00,A,A*79
$GPRMC,055445.00,A,2730.04480,S,15300.93578,E,0.068,,101214,,,A*68
$GPVTG,,T,,M,0.068,N,0.126,K,A*28
$GPGGA,055445.00,2730.04480,S,15300.93578,E,1,07,1.17,7.6,M,38.5,M,,*42
$GPGSA,A,3,06,02,17,24,12,28,10,,,,,,2.08,1.17,1.73*06
$GPGSV,3,1,10,02,53,348,34,06,69,095,37,10,15,050,25,12,24,224,37*75
$GPGSV,3,2,10,15,09,297,,17,28,135,36,20,00,131,,24,46,240,41*70
$GPGSV,3,3,10,26,07,335,,28,16,077,27*76
$GPGLL,2730.04480,S,15300.93578,E,055445.00,A,A*78
$GPRMC,055446.00,A,2730.04479,S,15300.93579,E,0.070,,101214,,,A*65
$GPVTG,,T,,M,0.070,N,0.130,K,A*26
$GPGGA,055446.00,2730.04479,S,15300.93579,E,1,07,1.17,7.7,M,38.5,M,,*47
$GPGSA,A,3,06,02,17,24,12,28,10,,,,,,2.08,1.17,1.73*06
$GPGSV,3,1,10,02,54,348,34,06,69,095,37,10,15,050,25,12,24,224,38*7D
$GPGSV,3,2,10,15,09,297,,17,28,135,37,20,00,131,,24,46,240,41*71
$GPGSV,3,3,10,26,07,335,,28,16,077,27*76
$GPGLL,2730.04479,S,15300.93579,E,055446.00,A,A*7C
$GPRMC,055447.00,A,2730.04481,S,15300.93580,E,0.069,,101214,,,A*6D
$GPVTG,,T,,M,0.069,N,0.128,K,A*27
$GPGGA,055447.00,2730.04481,S,15300.93580,E,1,07,1.17,7.7,M,38.5,M,,*47
$GPGSA,A,3,06,02,17,24,12,28,10,,,,,,2.08,1.17,1.73*06
$GPGSV,3,1,10,02,54,348,35,06,69,095,37,10,15,050,24,12,24,224,38*7D
$GPGSV,3,2,10,15,09,297,,17,28,135,37,20,00,131,,24,46,240,40*70
$GPGSV,3,3,10,26,07,335,,28,16,077,28*79
$GPGLL,2730.04481,S,15300.93580,E,055447.00,A,A*7C
$GPRMC,055448.00,A,2730.04483,S,15300.93579,E,0.044,,101214,,,A*69
$GPVTG,,T,,M,0.044,N,0.081,K,A*2A
$GPGGA,055448.00,2730.04483,S,15300.93579,E,1,07,1.17,7.7,M,38.5,M,,*4C
$GPGSA,A,3,06,02,17,24,12,28,10,,,,,,2.08,1.17,1.73*06
$GPGSV,3,1,10,02,54,348,35,06,69,095,38,10,15,050,24,12,24,224,37*7D
$GPGSV,3,2,10,15,09,297,,17,28,135,37,20,00,131,,24,46,240,40*70
$GPGSV,3,3,10,26,07,335,,28,16,077,29*78
$GPGLL,2730.04483,S,15300.93579,E,055448.00,A,A*77
$GPRMC,055449.00,A,2730.04483,S,15300.93579,E,0.067,,101214,,,A*69
$GPVTG,,T,,M,0.067,N,0.123,K,A*22
$GPGGA,055449.00,2730.04483,S,15300.93579,E,1,07,1.17,7.7,M,38.5,M,,*4D
$GPGSA,A,3,06,02,17,24,12,28,10,,,,,,2.09,1.17,1.73*07
$GPGSV,3,1,10,02,54,348,35,06,69,095,37,10,15,050,23,12,24,224,36*74
$GPGSV,3,2,10,15,09,297,,17,28,135,37,20,00,131,,24,46,240,40*70
$GPGSV,3,3,10,26,07,335,,28,16,077,29*78
$GPGLL,2730.04483,S,15300.93579,E,055449.00,A,A*76
$GPRMC,055450.00,A,2730.04485,S,15300.93579,E,0.035,,101214,,,A*60
$GPVTG,,T,,M,0.035,N,0.066,K,A*25
$GPGGA,055450.00,2730.04485,S,15300.93579,E,1,07,1.17,7.7,M,38.5,M,,*43
$GPGSA,A,3,06,02,17,24,12,28,10,,,,,,2.09,1.17,1.73*07
$GPGSV,3,1,10,02,54,348,35,06,69,096,37,10,15,050,21,12,24,224,36*75
$GPGSV,3,2,10,15,09,297,,17,28,135,36,20,00,131,,24,46,240,40*71
$GPGSV,3,3,10,26,07,335,,28,16,077,28*79
$GPGLL,2730.04485,S,15300.93579,E,055450.00,A,A*78
$GPRMC,055451.00,A,2730.04485,S,15300.93578,E,0.025,,101214,,,A*61
$GPVTG,,T,,M,0.025,N,0.047,K,A*27
$GPGGA,055451.00,2730.04485,S,15300.93578,E,1,07,1.17,7.7,M,38.5,M,,*43
$GPGSA,A,3,06,02,17,24,12,28,10,,,,,,2.09,1.17,1.73*07
$GPGSV,3,1,10,02,54,348,36,06,69,096,38,10,15,050,29,12,24,224,38*7F
$GPGSV,3,2,10,15,09,297,,17,28,135,39,20,00,131,,24,46,240,40*7E
$GPGSV,3,3,10,26,07,335,,28,16,077,28*79
$GPGLL,2730.04485,S,15300.93578,E,055451.00,A,A*78
$GPRMC,055452.00,A,2730.04485,S,15300.93576,E,0.050,,101214,,,A*6E
$GPVTG,,T,,M,0.050,N,0.092,K,A*2D
$GPGGA,055452.00,2730.04485,S,15300.93576,E,1,07,1.17,7.7,M,38.5,M,,*4E
$GPGSA,A,3,06,02,17,24,12,28,10,,,,,,2.09,1.17,1.73*07
$GPGSV,3,1,10,02,54,348,35,06,69,096,38,10,15,050,27,12,24,224,38*72
$GPGSV,3,2,10,15,09,297,,17,28,135,37,20,00,131,,24,46,240,40*70
$GPGSV,3,3,10,26,07,335,,28,16,077,27*76
$GPGLL,2730.04485,S,15300.93576,E,055452.00,A,A*75
$GPRMC,055453.00,A,2730.04486,S,15300.93577,E,0.039,,101214,,,A*62
$GPVTG,,T,,M,0.039,N,0.073,K,A*2D
$GPGGA,055453.00,2730.04486,S,15300.93577,E,1,07,1.17,7.7,M,38.5,M,,*4D
$GPGSA,A,3,06,02,17,24,12,28,10,,,,,,2.09,1.17,1.73*07
$GPGSV,3,1,10,02,54,348,35,06,69,096,38,10,15,050,27,12,24,224,37*7D
$GPGSV,3,2,10,15,09,297,,17,28,135,36,20,00,131,,24,46,240,40*71
$GPGSV,3,3,10,26,07,335,,28,16,077,28*79
$GPGLL,2730.04486,S,15300.93577,E,055453.00,A,A*76
$GPRMC,055454.00,A,2730.04487,S,15300.93577,E,0.038,,101214,,,A*65
$GPVTG,,T,,M,0.038,N,0.070,K,A*2F
$GPGGA,055454.00,2730.04487,S,15300.93577,E,1,07,1.17,7.7,M,38.5,M,,*4B
$GPGSA,A,3,06,02,17,24,12,28,10,,,,,,2.09,1.17,1.73*07
$GPGSV,3,1,10,02,54,348,35,06,69,096,38,10,15,050,26,12,24,224,38*73
$GPGSV,3,2,10,15,09,297,,17,28,135,37,20,00,131,,24,46,240,40*70
$GPGSV,3,3,10,26,07,335,,28,16,077,27*76
$GPGLL,2730.04487,S,15300.93577,E,055454.00,A,A*70
$GPRMC,055455.00,A,2730.04488,S,15300.93578,E,0.037,,101214,,,A*6B
$GPVTG,,T,,M,0.037,N,0.069,K,A*28
$GPGGA,055455.00,2730.04488,S,15300.93578,E,1,07,1.17,7.7,M,38.5,M,,*4A
$GPGSA,A,3,06,02,17,24,12,28,10,,,,,,2.09,1.17,1.73*07
$GPGSV,3,1,10,02,54,348,36,06,69,096,38,10,15,050,27,12,24,224,37*7E
$GPGSV,3,2,10,15,09,297,,17,28,135,37,20,00,131,,24,46,240,40*70
$GPGSV,3,3,10,26,07,335,,28,16,077,27*76
$GPGLL,2730.04488,S,15300.93578,E,055455.00,A,A*71
$GPRMC,055456.00,A,2730.04490,S,15300.93578,E,0.025,,101214,,,A*62
$GPVTG,,T,,M,0.025,N,0.047,K,A*27
$GPGGA,055456.00,2730.04490,S,15300.93578,E,1,07,1.17,7.8,M,38.5,M,,*4F
$GPGSA,A,3,06,02,17,24,12,28,10,,,,,,2.09,1.17,1.73*07
$GPGSV,3,1,10,02,54,348,36,06,69,096,38,10,15,050,27,12,24,224,37*7E
$GPGSV,3,2,10,15,09,297,,17,28,135,37,20,00,131,,24,46,240,40*70
$GPGSV,3,3,10,26,07,335,,28,16,077,27*76
$GPGLL,2730.04490,S,15300.93578,E,055456.00,A,A*7B
$GPRMC,055457.00,A,2730.04490,S,15300.93580,E,0.059,,101214,,,A*6F
$GPVTG,,T,,M,0.059,N,0.109,K,A*27
$GPGGA,055457.00,2730.04490,S,15300.93580,E,1,07,1.17,7.7,M,38.5,M,,*46
$GPGSA,A,3,06,02,17,24,12,28,10,,,,,,2.09,1.17,1.73*07
$GPGSV,3,1,10,02,54,348,36,06,69,096,38,10,15,050,27,12,24,224,38*71
$GPGSV,3,2,10,15,09,297,,17,28,135,37,20,00,131,,24,46,240,40*70
$GPGSV,3,3,10,26,07,335,,28,16,077,26*77
$GPGLL,2730.04490,S,15300.93580,E,055457.00,A,A*7D
$GPRMC,055458.00,A,2730.04490,S,15300.93581,E,0.044,,101214,,,A*6D
$GPVTG,,T,,M,0.044,N,0.081,K,A*2A
$GPGGA,055458.00,2730.04490,S,15300.93581,E,1,07,1.17,7.7,M,38.5,M,,*48
$GPGSA,A,3,06,02,17,24,12,28,10,,,,,,2.09,1.17,1.73*07
$GPGSV,3,1,10,02,54,348,35,06,69,096,38,10,15,050,26,12,24,224,39*72
$GPGSV,3,2,10,15,09,297,,17,28,135,37,20,00,131,,24,46,240,40*70
$GPGSV,3,3,10,26,07,335,,28,16,077,26*77
$GPGLL,2730.04490,S,15300.93581,E,055458.00,A,A*73
$GPRMC,055459.00,A,2730.04488,S,15300.93583,E,0.031,,101214,,,A*65
$GPVTG,,T,,M,0.031,N,0.058,K,A*2C
$GPGGA,055459.00,2730.04488,S,15300.93583,E,1,07,1.17,7.7,M,38.5,M,,*42
$GPGSA,A,3,06,02,17,24,12,28,10,,,,,,2.09,1.17,1.73*07
$GPGSV,3,1,10,02,54,348,35,06,69,096,38,10,15,050,26,12,24,224,38*73
$GPGSV,3,2,10,15,08,298,,17,28,135,37,20,00,131,,24,46,240,39*70
$GPGSV,3,3,10,26,07,335,,28,16,077,26*77
$GPGLL,2730.04488,S,15300.93583,E,055459.00,A,A*79
$GPRMC,055500.00,A,2730.04485,S,15300.93585,E,0.020,,101214,,,A*63
$GPVTG,,T,,M,0.020,N,0.038,K,A*2A
$GPGGA,055500.00,2730.04485,S,15300.93585,E,1,07,1.17,7.5,M,38.5,M,,*46
$GPGSA,A,3,06,02,17,24,12,28,10,,,,,,2.09,1.17,1.73*07
$GPGSV,3,1,10,02,54,348,35,06,69,096,39,10,15,050,26,12,24,224,38*72
$GPGSV,3,2,10,15,08,298,,17,28,135,37,20,00,131,,24,46,240,40*7E
$GPGSV,3,3,10,26,07,335,,28,16,077,27*76
$GPGLL,2730.04485,S,15300.93585,E,055500.00,A,A*7F
$GPRMC,055501.00,A,2730.04488,S,15300.93586,E,0.105,,101214,,,A*6A
$GPVTG,,T,,M,0.105,N,0.195,K,A*2A
$GPGGA,055501.00,2730.04488,S,15300.93586,E,1,07,1.17,7.7,M,38.5,M,,*4B
$GPGSA,A,3,06,02,17,24,12,28,10,,,,,,2.09,1.17,1.73*07
$GPGSV,3,1,10,02,54,348,35,06,69,096,38,10,15,050,24,12,24,224,37*7E
$GPGSV,3,2,10,15,08,298,,17,27,135,36,20,00,131,,24,46,240,40*70
$GPGSV,3,3,10,26,07,335,,28,16,077,27*76
$GPGLL,2730.04488,S,15300.93586,E,055501.00,A,A*70
$GPRMC,055502.00,A,2730.04487,S,15300.93586,E,0.010,,101214,,,A*63
$GPVTG,,T,,M,0.010,N,0.019,K,A*2A
$GPGGA,055502.00,2730.04487,S,15300.93586,E,1,07,1.17,7.6,M,38.5,M,,*46
$GPGSA,A,3,06,02,17,24,12,28,10,,,,,,2.09,1.17,1.73*07
$GPGSV,3,1,10,02,54,348,34,06,69,096,39,10,15,050,25,12,24,224,36*7E
$GPGSV,3,2,10,15,08,298,,17,27,135,37,20,00,131,,24,46,240,41*70
$GPGSV,3,3,10,26,07,335,,28,16,077,28*79
$GPGLL,2730.04487,S,15300.93586,E,055502.00,A,A*7C
$GPRMC,055503.00,A,2730.04486,S,15300.93587,E,0.018,,101214,,,A*6A
$GPVTG,,T,,M,0.018,N,0.034,K,A*2D
$GPGGA,055503.00,2730.04486,S,15300.93587,E,1,07,1.17,7.6,M,38.5,M,,*47
$GPGSA,A,3,06,02,17,24,12,28,10,,,,,,2.09,1.17,1.73*07
$GPGSV,3,1,10,02,54,348,33,06,69,096,39,10,15,050,27,12,24,224,35*78
$GPGSV,3,2,10,15,08,298,,17,27,135,35,20,00,131,,24,46,240,41*72
$GPGSV,3,3,10,26,07,335,,28,16,077,28*79
$GPGLL,2730.04486,S,15300.93587,E,055503.00,A,A*7D
$GPRMC,055504.00,A,2730.04490,S,15300.93589,E,0.067,,101214,,,A*6C
$GPVTG,,T,,M,0.067,N,0.125,K,A*24
$GPGGA,055504.00,2730.04490,S,15300.93589,E,1,07,1.17,7.8,M,38.5,M,,*47
$GPGSA,A,3,06,02,17,24,12,28,10,,,,,,2.09,1.17,1.73*07
$GPGSV,3,1,10,02,54,348,33,06,69,096,39,10,15,050,25,12,24,224,37*78
$GPGSV,3,2,10,15,08,298,,17,27,135,35,20,00,131,,24,46,240,41*72
$GPGSV,3,3,10,26,07,335,,28,16,077,29*78
$GPGLL,2730.04490,S,15300.93589,E,055504.00,A,A*73
$GPRMC,055505.00,A,2730.04490,S,15300.93591,E,0.012,,101214,,,A*66
$GPVTG,,T,,M,0.012,N,0.023,K,A*21
$GPGGA,055505.00,2730.04490,S,15300.93591,E,1,07,1.17,7.8,M,38.5,M,,*4F
$GPGSA,A,3,06,02,17,24,12,28,10,,,,,,2.09,1.17,1.73*07
$GPGSV,3,1,10,02,54,348,33,06,69,096,39,10,15,050,25,12,24,224,36*79
$GPGSV,3,2,10,15,08,298,,17,27,135,35,20,00,131,,24,46,240,41*72
$GPGSV,3,3,10,26,07,335,,28,16,077,29*78
$GPGLL,2730.04490,S,15300.93591,E,055505.00,A,A*7B
$GPRMC,055506.00,A,2730.04491,S,15300.93593,E,0.045,,101214,,,A*64
$GPVTG,,T,,M,0.045,N,0.082,K,A*28
$GPGGA,055506.00,2730.04491,S,15300.93593,E,1,07,1.17,7.8,M,38.5,M,,*4F
$GPGSA,A,3,06,02,17,24,12,28,10,,,,,,2.09,1.17,1.73*07
$GPGSV,3,1,10,02,54,348,32,06,69,096,40,10,15,050,24,12,24,224,36*77
$GPGSV,3,2,10,15,08,298,,17,27,135,35,20,00,131,,24,46,240,41*72
$GPGSV,3,3,10,26,07,335,,28,16,077,29*78
$GPGLL,2730.04491,S,15300.93593,E,055506.00,A,A*7B
$GPRMC,055507.00,A,2730.04492,S,15300.93594,E,0.046,,101214,,,A*62
$GPVTG,,T,,M,0.046,N,0.085,K,A*2C
$GPGGA,055507.00,2730.04492,S,15300.93594,E,1,07,1.17,7.8,M,38.5,M,,*4A
$GPGSA,A,3,06,02,17,24,12,28,10,,,,,,2.09,1.17,1.73*07
$GPGSV,3,1,10,02,54,348,32,06,69,096,39,10,15,050,25,12,24,224,37*79
$GPGSV,3,2,10,15,08,298,,17,27,135,36,20,00,131,,24,46,240,41*71
$GPGSV,3,3,10,26,07,335,,28,16,077,30*70
$GPGLL,2730.04492,S,15300.93594,E,055507.00,A,A*7E
$GPRMC,055508.00,A,2730.04493,S,15300.93596,E,0.072,,101214,,,A*69
$GPVTG,,T,,M,0.072,N,0.133,K,A*27
$GPGGA,055508.00,2730.04493,S,15300.93596,E,1,07,1.17,7.8,M,38.5,M,,*46
$GPGSA,A,3,06,02,17,24,12,28,10,,,,,,2.09,1.17,1.73*07
$GPGSV,3,1,10,02,54,348,33,06,69,096,40,10,15,050,27,12,24,224,37*74
$GPGSV,3,2,10,15,08,298,,17,27,135,37,20,00,131,,24,46,240,41*70
$GPGSV,3,3,10,26,07,335,,28,16,077,29*78
$GPGLL,2730.04493,S,15300.93596,E,055508.00,A,A*72
$GPRMC,055509.00,A,2730.04496,S,15300.93598,E,0.102,,101214,,,A*65
$GPVTG,,T,,M,0.102,N,0.189,K,A*20
$GPGGA,055509.00,2730.04496,S,15300.93598,E,1,07,1.17,7.9,M,38.5,M,,*4D
$GPGSA,A,3,06,02,17,24,12,28,10,,,,,,2.09,1.17,1.73*07
$GPGSV,3,1,10,02,54,348,33,06,69,096,40,10,15,050,28,12,24,224,38*74
$GPGSV,3,2,10,15,08,298,,17,27,135,34,20,00,131,,24,46,240,41*73
$GPGSV,3,3,10,26,07,335,,28,16,077,28*79
$GPGLL,2730.04496,S,15300.93598,E,055509.00,A,A*78
$GPRMC,055510.00,A,2730.04497,S,15300.93600,E,0.044,,101214,,,A*6D
$GPVTG,,T,,M,0.044,N,0.081,K,A*2A
$GPGGA,055510.00,2730.04497,S,15300.93600,E,1,07,1.17,7.9,M,38.5,M,,*46
$GPGSA,A,3,06,02,17,24,12,28,10,,,,,,2.09,1.17,1.73*07
$GPGSV,3,1,10,02,54,348,34,06,69,096,40,10,15,050,28,12,24,224,37*7C
$GPGSV,3,2,10,15,08,298,,17,27,135,34,20,00,131,,24,46,240,41*73
$GPGSV,3,3,10,26,07,336,,28,16,077,28*7A
$GPGLL,2730.04497,S,15300.93600,E,055510.00,A,A*73
$GPRMC,055511.00,A,2730.04498,S,15300.93602,E,0.042,,101214,,,A*67
$GPVTG,,T,,M,0.042,N,0.077,K,A*25
$GPGGA,055511.00,2730.04498,S,15300.93602,E,1,07,1.17,7.8,M,38.5,M,,*4B
$GPGSA,A,3,06,02,17,24,12,28,10,,,,,,2.09,1.17,1.73*07
$GPGSV,3,1,10,02,54,348,34,06,69,096,40,10,15,050,28,12,24,224,37*7C
$GPGSV,3,2,10,15,08,298,,17,27,135,34,20,00,131,,24,46,240,41*73
$GPGSV,3,3,10,26,07,336,,28,16,077,27*75
$GPGLL,2730.04498,S,15300.93602,E,055511.00,A,A*7F
$GPRMC,055512.00,A,2730.04497,S,15300.93603,E,0.013,,101214,,,A*6E
$GPVTG,,T,,M,0.013,N,0.024,K,A*27
$GPGGA,055512.00,2730.04497,S,15300.93603,E,1,07,1.17,7.6,M,38.5,M,,*48
$GPGSA,A,3,06,02,17,24,12,28,10,,,,,,2.09,1.17,1.73*07
$GPGSV,3,1,10,02,54,348,34,06,69,096,40,10,15,050,28,12,24,224,37*7C
$GPGSV,3,2,10,15,08,298,,17,27,135,34,20,00,131,,24,46,240,41*73
$GPGSV,3,3,10,26,07,336,,28,16,077,27*75
$GPGLL,2730.04497,S,15300.93603,E,055512.00,A,A*72
$GPRMC,055513.00,A,2730.04496,S,15300.93604,E,0.019,,101214,,,A*63
$GPVTG,,T,,M,0.019,N,0.035,K,A*2D
$GPGGA,055513.00,2730.04496,S,15300.93604,E,1,07,1.17,7.4,M,38.5,M,,*4D
$GPGSA,A,3,06,02,17,24,12,28,10,,,,,,2.09,1.17,1.73*07
$GPGSV,3,1,10,02,54,348,34,06,69,096,40,10,15,050,28,12,24,224,37*7C
$GPGSV,3,2,10,15,08,298,,17,27,135,35,20,00,131,,24,46,240,40*73
$GPGSV,3,3,10,26,07,336,,28,16,077,27*75
$GPGLL,2730.04496,S,15300.93604,E,055513.00,A,A*75
$GPRMC,055514.00,A,2730.04497,S,15300.93605,E,0.022,,101214,,,A*6C
$GPVTG,,T,,M,0.022,N,0.040,K,A*27
$GPGGA,055514.00,2730.04497,S,15300.93605,E,1,07,1.17,7.3,M,38.5,M,,*4D
$GPGSA,A,3,06,02,17,24,12,28,10,,,,,,2.09,1.17,1.73*07
$GPGSV,3,1,10,02,54,348,33,06,69,096,40,10,15,050,29,12,24,224,37*7A
$GPGSV,3,2,10,15,08,298,,17,27,135,35,20,00,131,,24,46,240,41*72
$GPGSV,3,3,10,26,07,336,,28,16,077,27*75
$GPGLL,2730.04497,S,15300.93605,E,055514.00,A,A*72
$GPRMC,055515.00,A,2730.04497,S,15300.93605,E,0.031,,101214,,,A*6F
$GPVTG,,T,,M,0.031,N,0.056,K,A*22
$GPGGA,055515.00,2730.04497,S,15300.93605,E,1,07,1.17,7.1,M,38.5,M,,*4E
$GPGSA,A,3,06,02,17,24,12,28,10,,,,,,2.09,1.17,1.73*07
$GPGSV,3,1,10,02,54,348,34,06,69,096,41,10,15,050,29,12,24,224,37*7C
$GPGSV,3,2,10,15,08,298,,17,27,135,34,20,00,131,,24,46,240,41*73
$GPGSV,3,3,10,26,07,336,,28,16,077,28*7A
$GPGLL,2730.04497,S,15300.93605,E,055515.00,A,A*73
$GPRMC,055516.00,A,2730.04496,S,15300.93604,E,0.070,,101214,,,A*69
$GPVTG,,T,,M,0.070,N,0.130,K,A*26
$GPGGA,055516.00,2730.04496,S,15300.93604,E,1,07,1.17,6.9,M,38.5,M,,*44
$GPGSA,A,3,06,02,17,24,12,28,10,,,,,,2.09,1.17,1.73*07
$GPGSV,3,1,10,02,54,348,34,06,69,096,41,10,15,050,29,12,24,224,36*7D
$GPGSV,3,2,10,15,08,298,,17,27,135,35,20,00,131,,24,46,240,40*73
$GPGSV,3,3,10,26,07,336,,28,16,077,29*7B
$GPGLL,2730.04496,S,15300.93604,E,055516.00,A,A*70
$GPRMC,055517.00,A,2730.04498,S,15300.93603,E,0.021,,101214,,,A*65
$GPVTG,,T,,M,0.021,N,0.039,K,A*2A
$GPGGA,055517.00,2730.04498,S,15300.93603,E,1,07,1.17,6.7,M,38.5,M,,*42
$GPGSA,A,3,06,02,17,24,12,28,10,,,,,,2.09,1.17,1.73*07
$GPGSV,3,1,10,02,54,348,34,06,69,096,41,10,15,050,30,12,24,224,36*75
$GPGSV,3,2,10,15,08,298,,17,27,135,34,20,00,131,,24,46,240,40*72
$GPGSV,3,3,10,26,07,336,,28,16,077,29*7B
$GPGLL,2730.04498,S,15300.93603,E,055517.00,A,A*78
$GPRMC,055518.00,A,2730.04497,S,15300.93603,E,0.048,,101214,,,A*6A
$GPVTG,,T,,M,0.048,N,0.088,K,A*2F
$GPGGA,055518.00,2730.04497,S,15300.93603,E,1,07,1.17,6.5,M,38.5,M,,*40
$GPGSA,A,3,06,02,17,24,12,28,10,,,,,,2.09,1.17,1.73*07
$GPGSV,3,1,10,02,54,348,33,06,69,096,41,10,15,050,30,12,24,224,36*72
$GPGSV,3,2,10,15,08,298,,17,27,135,33,20,00,131,,24,46,240,40*75
$GPGSV,3,3,10,26,07,336,,28,16,077,30*73
$GPGLL,2730.04497,S,15300.93603,E,055518.00,A,A*78
$GPRMC,055519.00,A,2730.04500,S,15300.93602,E,0.019,,101214,,,A*61
$GPVTG,,T,,M,0.019,N,0.034,K,A*2C
$GPGGA,055519.00,2730.04500,S,15300.93602,E,1,07,1.17,6.5,M,38.5,M,,*4F
$GPGSA,A,3,06,02,17,24,12,28,10,,,,,,2.09,1.17,1.73*07
$GPGSV,3,1,10,02,54,348,33,06,69,096,41,10,15,050,31,12,24,224,37*72
$GPGSV,3,2,10,15,08,298,,17,27,135,34,20,00,131,,24,46,240,40*72
$GPGSV,3,3,10,26,07,336,,28,16,077,30*73
$GPGLL,2730.04500,S,15300.93602,E,055519.00,A,A*77
$GPRMC,055520.00,A,2730.04506,S,15300.93602,E,0.023,,101214,,,A*64
$GPVTG,,T,,M,0.023,N,0.042,K,A*24
$GPGGA,055520.00,2730.04506,S,15300.93602,E,1,07,1.17,6.5,M,38.5,M,,*43
$GPGSA,A,3,06,02,17,24,12,28,10,,,,,,2.09,1.17,1.73*07
$GPGSV,3,1,10,02,54,348,34,06,69,096,40,10,15,050,31,12,24,224,36*75
$GPGSV,3,2,10,15,08,298,,17,27,135,34,20,00,131,,24,46,240,39*7C
$GPGSV,3,3,10,26,07,336,,28,16,077,30*73
$GPGLL,2730.04506,S,15300.93602,E,055520.00,A,A*7B
$GPRMC,055521.00,A,2730.04508,S,15300.93601,E,0.028,,101214,,,A*63
$GPVTG,,T,,M,0.028,N,0.052,K,A*2E
$GPGGA,055521.00,2730.04508,S,15300.93601,E,1,07,1.17,6.5,M,38.5,M,,*4F
$GPGSA,A,3,06,02,17,24,12,28,10,,,,,,2.09,1.17,1.73*07
$GPGSV,3,1,10,02,54,348,34,06,69,096,40,10,15,050,31,12,24,224,37*74
$GPGSV,3,2,10,15,08,298,,17,27,135,36,20,00,131,,24,46,240,39*7E
$GPGSV,3,3,10,26,07,336,,28,16,077,30*73
$GPGLL,2730.04508,S,15300.93601,E,055521.00,A,A*77
$GPRMC,055522.00,A,2730.04514,S,15300.93600,E,0.044,,101214,,,A*66
$GPVTG,,T,,M,0.044,N,0.082,K,A*29
$GPGGA,055522.00,2730.04514,S,15300.93600,E,1,07,1.17,6.5,M,38.5,M,,*40
$GPGSA,A,3,06,02,17,24,12,28,10,,,,,,2.09,1.17,1.73*07
$GPGSV,3,1,10,02,54,348,35,06,69,096,41,10,15,050,31,12,24,224,37*74
$GPGSV,3,2,10,15,08,298,,17,27,135,35,20,00,131,,24,46,240,39*7D
$GPGSV,3,3,10,26,07,336,,28,16,077,30*73
$GPGLL,2730.04514,S,15300.93600,E,055522.00,A,A*78
$GPRMC,055523.00,A,2730.04514,S,15300.93599,E,0.078,,101214,,,A*6B
$GPVTG,,T,,M,0.078,N,0.144,K,A*2D
$GPGGA,055523.00,2730.04514,S,15300.93599,E,1,07,1.17,6.4,M,38.5,M,,*43
$GPGSA,A,3,06,02,17,24,12,28,10,,,,,,2.09,1.17,1.73*07
$GPGSV,3,1,10,02,54,348,34,06,69,096,41,10,15,050,30,12,24,224,37*74
$GPGSV,3,2,10,15,08,298,,17,27,135,35,20,00,131,,24,46,240,40*73
$GPGSV,3,3,10,26,07,336,,28,16,077,28*7A
$GPGLL,2730.04514,S,15300.93599,E,055523.00,A,A*7A
$GPRMC,055524.00,A,2730.04512,S,15300.93598,E,0.003,,101214,,,A*67
$GPVTG,,T,,M,0.003,N,0.006,K,A*26
$GPGGA,055524.00,2730.04512,S,15300.93598,E,1,07,1.17,6.3,M,38.5,M,,*44
$GPGSA,A,3,06,02,17,24,12,28,10,,,,,,2.09,1.17,1.73*07
$GPGSV,3,1,10,02,54,348,32,06,69,096,40,10,15,050,31,12,24,224,38*7D
$GPGSV,3,2,10,15,08,298,,17,27,135,35,20,00,131,,24,46,240,39*7D
$GPGSV,3,3,10,26,07,336,,28,16,077,28*7A
$GPGLL,2730.04512,S,15300.93598,E,055524.00,A,A*7A
$GPRMC,055525.00,A,2730.04512,S,15300.93599,E,0.014,,101214,,,A*61
$GPVTG,,T,,M,0.014,N,0.027,K,A*23
$GPGGA,055525.00,2730.04512,S,15300.93599,E,1,07,1.17,6.2,M,38.5,M,,*45
$GPGSA,A,3,06,02,17,24,12,28,10,,,,,,2.09,1.17,1.73*07
$GPGSV,3,1,10,02,54,348,31,06,69,096,41,10,15,050,30,12,24,224,37*71
$GPGSV,3,2,10,15,08,298,,17,27,135,36,20,00,131,,24,46,240,39*7E
$GPGSV,3,3,10,26,07,336,,28,16,077,28*7A
$GPGLL,2730.04512,S,15300.93599,E,055525.00,A,A*7A
$GPRMC,055526.00,A,2730.04513,S,15300.93600,E,0.036,,101214,,,A*60
$GPVTG,,T,,M,0.036,N,0.066,K,A*26
$GPGGA,055526.00,2730.04513,S,15300.93600,E,1,07,1.17,6.1,M,38.5,M,,*47
$GPGSA,A,3,06,02,17,24,12,28,10,,,,,,2.09,1.17,1.73*07
$GPGSV,3,1,10,02,54,348,32,06,69,096,41,10,15,050,31,12,24,224,37*73
$GPGSV,3,2,10,15,08,298,,17,27,135,35,20,00,131,,24,46,240,39*7D
$GPGSV,3,3,10,26,07,336,,28,16,077,27*75
$GPGLL,2730.04513,S,15300.93600,E,055526.00,A,A*7B
$GPRMC,055527.00,A,2730.04515,S,15300.93600,E,0.041,,101214,,,A*67
$GPVTG,,T,,M,0.041,N,0.076,K,A*27
$GPGGA,055527.00,2730.04515,S,15300.93600,E,1,07,1.17,6.0,M,38.5,M,,*41
$GPGSA,A,3,06,02,17,24,12,28,10,,,,,,2.09,1.17,1.73*07
$GPGSV,3,1,10,02,54,348,35,06,69,096,41,10,15,050,32,12,24,224,35*75
$GPGSV,3,2,10,15,08,298,,17,27,135,37,20,00,131,,24,46,240,39*7F
$GPGSV,3,3,10,26,07,336,,28,16,077,27*75
$GPGLL,2730.04515,S,15300.93600,E,055527.00,A,A*7C
$GPRMC,055528.00,A,2730.04516,S,15300.93599,E,0.017,,101214,,,A*6B
$GPVTG,,T,,M,0.017,N,0.032,K,A*24
$GPGGA,055528.00,2730.04516,S,15300.93599,E,1,07,1.17,5.9,M,38.5,M,,*44
$GPGSA,A,3,06,02,17,24,12,28,10,,,,,,2.09,1.17,1.73*07
$GPGSV,3,1,10,02,54,348,34,06,69,096,41,10,15,050,31,12,24,224,36*74
$GPGSV,3,2,10,15,08,298,,17,27,135,37,20,00,131,,24,46,240,40*71
$GPGSV,3,3,10,26,07,336,,28,16,077,27*75
$GPGLL,2730.04516,S,15300.93599,E,055528.00,A,A*73
$GPRMC,055529.00,A,2730.04517,S,15300.93597,E,0.008,,101214,,,A*6B
$GPVTG,,T,,M,0.008,N,0.014,K,A*2E
$GPGGA,055529.00,2730.04517,S,15300.93597,E,1,07,1.17,5.8,M,38.5,M,,*4B
$GPGSA,A,3,06,02,17,24,12,28,10,,,,,,2.09,1.17,1.73*07
$GPGSV,3,1,10,02,54,348,33,06,69,096,41,10,15,050,31,12,24,224,35*70
$GPGSV,3,2,10,15,08,298,,17,27,135,34,20,00,131,,24,46,240,40*72
$GPGSV,3,3,10,26,07,336,,28,16,077,28*7A
$GPGLL,2730.04517,S,15300.93597,E,055529.00,A,A*7D
$GPRMC,055530.00,A,2730.04520,S,15300.93596,E,0.031,,101214,,,A*6C
$GPVTG,,T,,M,0.031,N,0.058,K,A*2C
$GPGGA,055530.00,2730.04520,S,15300.93596,E,1,07,1.17,5.8,M,38.5,M,,*46
$GPGSA,A,3,06,02,17,24,12,28,10,,,,,,2.09,1.17,1.73*07
$GPGSV,3,1,10,02,54,348,33,06,69,096,41,10,15,050,31,12,24,224,35*70
$GPGSV,3,2,10,15,08,298,,17,27,135,36,20,00,131,,24,46,240,39*7E
$GPGSV,3,3,10,26,07,336,,28,16,077,29*7B
$GPGLL,2730.04520,S,15300.93596,E,055530.00,A,A*70
$GPRMC,055531.00,A,2730.04522,S,15300.93593,E,0.026,,101214,,,A*6C
$GPVTG,,T,,M,0.026,N,0.048,K,A*2B
$GPGGA,055531.00,2730.04522,S,15300.93593,E,1,07,1.17,5.8,M,38.5,M,,*40
$GPGSA,A,3,06,02,17,24,12,28,10,,,,,,2.09,1.17,1.73*07
$GPGSV,3,1,10,02,54,348,31,06,69,096,40,10,15,050,31,12,24,224,36*70
$GPGSV,3,2,10,15,08,298,,17,27,135,36,20,00,131,,24,46,240,39*7E
$GPGSV,3,3,10,26,07,336,,28,16,077,30*73
$GPGLL,2730.04522,S,15300.93593,E,055531.00,A,A*76
$GPRMC,055532.00,A,2730.04524,S,15300.93592,E,0.044,,101214,,,A*6C
$GPVTG,,T,,M,0.044,N,0.082,K,A*29
$GPGGA,055532.00,2730.04524,S,15300.93592,E,1,07,1.17,5.8,M,38.5,M,,*44
$GPGSA,A,3,06,02,17,24,12,28,10,,,,,,2.09,1.17,1.73*07
$GPGSV,3,1,10,02,54,348,31,06,69,096,40,10,15,050,30,12,24,224,37*70
$GPGSV,3,2,10,15,08,298,,17,27,135,36,20,00,131,,24,46,240,38*7F
$GPGSV,3,3,10,26,07,336,,28,16,077,30*73
$GPGLL,2730.04524,S,15300.93592,E,055532.00,A,A*72
$GPRMC,055533.00,A,2730.04526,S,15300.93588,E,0.040,,101214,,,A*60
$GPVTG,,T,,M,0.040,N,0.074,K,A*24
$GPGGA,055533.00,2730.04526,S,15300.93588,E,1,07,1.17,5.8,M,38.5,M,,*4C
$GPGSA,A,3,06,02,17,24,12,28,10,,,,,,2.09,1.17,1.73*07
$GPGSV,3,1,10,02,54,348,31,06,69,096,40,10,15,050,31,12,24,224,37*71
$GPGSV,3,2,10,15,08,298,,17,27,135,36,20,00,131,,24,46,240,40*70
$GPGSV,3,3,10,26,07,336,,28,16,077,30*73
$GPGLL,2730.04526,S,15300.93588,E,055533.00,A,A*7A
$GPRMC,055534.00,A,2730.04527,S,15300.93585,E,0.022,,101214,,,A*6F
$GPVTG,,T,,M,0.022,N,0.041,K,A*26
$GPGGA,055534.00,2730.04527,S,15300.93585,E,1,07,1.17,5.7,M,38.5,M,,*48
$GPGSA,A,3,06,02,17,24,12,28,10,,,,,,2.09,1.17,1.73*07
$GPGSV,3,1,10,02,54,348,32,06,69,096,40,10,15,050,30,12,24,224,38*7C
$GPGSV,3,2,10,15,08,298,,17,27,135,36,20,00,131,,24,46,240,39*7E
$GPGSV,3,3,10,26,07,336,,28,16,077,30*73
$GPGLL,2730.04527,S,15300.93585,E,055534.00,A,A*71
$GPRMC,055535.00,A,2730.04527,S,15300.93583,E,0.023,,101214,,,A*69
$GPVTG,,T,,M,0.023,N,0.043,K,A*25
$GPGGA,055535.00,2730.04527,S,15300.93583,E,1,07,1.17,5.7,M,38.5,M,,*4F
$GPGSA,A,3,06,02,17,24,12,28,10,,,,,,2.09,1.17,1.73*07
$GPGSV,3,1,10,02,54,348,32,06,69,096,39,10,15,050,29,12,24,224,38*7A
$GPGSV,3,2,10,15,08,298,,17,27,135,35,20,00,131,,24,46,240,39*7D
$GPGSV,3,3,10,26,07,336,,28,16,077,30*73
$GPGLL,2730.04527,S,15300.93583,E,055535.00,A,A*76
$GPRMC,055536.00,A,2730.04528,S,15300.93581,E,0.041,,101214,,,A*63
$GPVTG,,T,,M,0.041,N,0.076,K,A*27
$GPGGA,055536.00,2730.04528,S,15300.93581,E,1,07,1.17,5.7,M,38.5,M,,*41
$GPGSA,A,3,06,02,17,24,12,28,10,,,,,,2.09,1.17,1.73*07
$GPGSV,3,1,10,02,54,348,33,06,69,096,39,10,15,050,29,12,24,224,37*74
$GPGSV,3,2,10,15,08,298,,17,27,135,36,20,00,131,,24,46,240,38*7F
$GPGSV,3,3,10,26,07,336,,28,16,077,30*73
$GPGLL,2730.04528,S,15300.93581,E,055536.00,A,A*78
$GPRMC,055537.00,A,2730.04527,S,15300.93580,E,0.007,,101214,,,A*6E
$GPVTG,,T,,M,0.007,N,0.013,K,A*26
$GPGGA,055537.00,2730.04527,S,15300.93580,E,1,07,1.17,5.8,M,38.5,M,,*41
$GPGSA,A,3,06,02,17,24,12,28,10,,,,,,2.09,1.17,1.73*07
$GPGSV,3,1,10,02,54,348,33,06,69,096,39,10,15,050,30,12,24,224,38*73
$GPGSV,3,2,10,15,08,298,,17,27,135,37,20,00,131,,24,46,240,38*7E
$GPGSV,3,3,10,26,07,336,,28,16,077,29*7B
$GPGLL,2730.04527,S,15300.93580,E,055537.00,A,A*77
$GPRMC,055538.00,A,2730.04528,S,15300.93579,E,0.008,,101214,,,A*67
$GPVTG,,T,,M,0.008,N,0.014,K,A*2E
$GPGGA,055538.00,2730.04528,S,15300.93579,E,1,07,1.17,5.8,M,38.5,M,,*47
$GPGSA,A,3,06,02,17,24,12,28,10,,,,,,2.09,1.17,1.73*07
$GPGSV,3,1,10,02,54,348,34,06,69,096,39,10,15,050,29,12,24,224,37*73
$GPGSV,3,2,10,15,08,298,,17,27,135,34,20,00,131,,24,46,240,38*7D
$GPGSV,3,3,10,26,07,336,,28,16,077,30*73
$GPGLL,2730.04528,S,15300.93579,E,055538.00,A,A*71
$GPRMC,055539.00,A,2730.04526,S,15300.93579,E,0.053,,101214,,,A*66
$GPVTG,,T,,M,0.053,N,0.097,K,A*2B
$GPGGA,055539.00,2730.04526,S,15300.93579,E,1,07,1.17,5.8,M,38.5,M,,*48
$GPGSA,A,3,06,02,17,24,12,28,10,,,,,,2.09,1.17,1.73*07
$GPGSV,3,1,10,02,54,348,34,06,69,096,39,10,15,050,27,12,24,224,39*73
$GPGSV,3,2,10,15,08,298,,17,27,135,35,20,00,131,,24,46,240,38*7C
$GPGSV,3,3,10,26,07,336,,28,16,077,29*7B
$GPGLL,2730.04526,S,15300.93579,E,055539.00,A,A*7E
$GPRMC,055540.00,A,2730.04523,S,15300.93579,E,0.061,,101214,,,A*6C
$GPVTG,,T,,M,0.061,N,0.113,K,A*27
$GPGGA,055540.00,2730.04523,S,15300.93579,E,1,07,1.17,5.8,M,38.5,M,,*43
$GPGSA,A,3,06,02,17,24,12,28,10,,,,,,2.09,1.17,1.73*07
$GPGSV,3,1,10,02,54,348,33,06,69,096,40,10,15,050,28,12,24,224,38*74
$GPGSV,3,2,10,15,08,298,,17,27,135,36,20,00,131,,24,46,240,38*7F
$GPGSV,3,3,10,26,07,336,,28,16,077,29*7B
$GPGLL,2730.04523,S,15300.93579,E,055540.00,A,A*75
$GPRMC,055541.00,A,2730.04521,S,15300.93579,E,0.027,,101214,,,A*6D
$GPVTG,,T,,M,0.027,N,0.050,K,A*23
$GPGGA,055541.00,2730.04521,S,15300.93579,E,1,07,1.17,5.7,M,38.5,M,,*4F
$GPGSA,A,3,06,02,17,24,12,28,10,,,,,,2.09,1.17,1.73*07
$GPGSV,3,1,10,02,54,348,34,06,69,096,40,10,15,050,28,12,24,224,39*72
$GPGSV,3,2,10,15,08,298,,17,27,135,36,20,00,131,,24,46,240,39*7E
$GPGSV,3,3,10,26,07,336,,28,16,077,29*7B
$GPGLL,2730.04521,S,15300.93579,E,055541.00,A,A*76
$GPRMC,055542.00,A,2730.04521,S,15300.93579,E,0.025,,101214,,,A*6C
$GPVTG,,T,,M,0.025,N,0.046,K,A*26
$GPGGA,055542.00,2730.04521,S,15300.93579,E,1,07,1.17,5.8,M,38.5,M,,*43
$GPGSA,A,3,06,02,17,24,12,28,10,,,,,,2.09,1.17,1.74*00
$GPGSV,3,1,10,02,54,348,33,06,69,096,40,10,15,050,28,12,24,224,39*75
$GPGSV,3,2,10,15,08,298,,17,27,135,36,20,00,131,,24,46,240,39*7E
$GPGSV,3,3,10,26,07,336,,28,16,077,28*7A
$GPGLL,2730.04521,S,15300.93579,E,055542.00,A,A*75
$GPRMC,055543.00,A,2730.04519,S,15300.93579,E,0.044,,101214,,,A*61
$GPVTG,,T,,M,0.044,N,0.081,K,A*2A
$GPGGA,055543.00,2730.04519,S,15300.93579,E,1,07,1.17,5.8,M,38.5,M,,*49
$GPGSA,A,3,06,02,17,24,12,28,10,,,,,,2.09,1.17,1.74*00
$GPGSV,3,1,10,02,54,348,34,06,69,096,40,10,15,050,28,12,24,224,38*73
$GPGSV,3,2,10,15,08,298,,17,27,135,37,20,00,131,,24,46,240,39*7F
$GPGSV,3,3,10,26,07,336,,28,16,077,28*7A
$GPGLL,2730.04519,S,15300.93579,E,055543.00,A,A*7F
$GPRMC,055544.00,A,2730.04518,S,15300.93578,E,0.016,,101214,,,A*61
$GPVTG,,T,,M,0.016,N,0.030,K,A*27
$GPGGA,055544.00,2730.04518,S,15300.93578,E,1,07,1.17,5.8,M,38.5,M,,*4E
$GPGSA,A,3,06,02,17,24,12,28,10,,,,,,2.09,1.17,1.74*00
$GPGSV,3,1,10,02,54,348,34,06,69,096,40,10,15,050,28,12,24,224,38*73
$GPGSV,3,2,10,15,08,298,,17,27,135,36,20,00,131,,24,46,240,40*70
$GPGSV,3,3,10,26,07,336,,28,16,077,28*7A
$GPGLL,2730.04518,S,15300.93578,E,055544.00,A,A*78
$GPRMC,055545.00,A,2730.04516,S,15300.93579,E,0.037,,101214,,,A*6C
$GPVTG,,T,,M,0.037,N,0.068,K,A*29
$GPGGA,055545.00,2730.04516,S,15300.93579,E,1,07,1.17,5.8,M,38.5,M,,*40
$GPGSA,A,3,06,02,17,24,12,28,10,,,,,,2.09,1.17,1.74*00
$GPGSV,3,1,10,02,54,348,35,06,69,096,40,10,15,050,27,12,24,224,38*7D
$GPGSV,3,2,10,15,08,298,,17,27,135,36,20,00,131,,24,46,240,40*70
$GPGSV,3,3,10,26,07,336,,28,16,077,27*75
$GPGLL,2730.04516,S,15300.93579,E,055545.00,A,A*76
$GPRMC,055546.00,A,2730.04517,S,15300.93580,E,0.029,,101214,,,A*67
$GPVTG,,T,,M,0.029,N,0.053,K,A*2E
$GPGGA,055546.00,2730.04517,S,15300.93580,E,1,07,1.17,5.9,M,38.5,M,,*45
$GPGSA,A,3,06,02,17,24,12,28,10,,,,,,2.09,1.17,1.74*00
$GPGSV,3,1,10,02,54,348,35,06,69,096,40,10,15,050,27,12,24,224,38*7D
$GPGSV,3,2,10,15,08,298,,17,27,135,35,20,00,131,,24,46,240,40*73
$GPGSV,3,3,10,26,07,336,,28,16,077,27*75
$GPGLL,2730.04517,S,15300.93580,E,055546.00,A,A*72
$GPRMC,055547.00,A,2730.04517,S,15300.93582,E,0.046,,101214,,,A*6D
$GPVTG,,T,,M,0.046,N,0.085,K,A*2C
$GPGGA,055547.00,2730.04517,S,15300.93582,E,1,07,1.17,5.9,M,38.5,M,,*46
$GPGSA,A,3,06,02,17,24,12,28,10,,,,,,2.10,1.17,1.74*08
$GPGSV,3,1,10,02,54,348,34,06,69,096,40,10,15,050,28,12,24,224,37*7C
$GPGSV,3,2,10,15,08,298,,17,27,135,35,20,00,131,,24,46,240,40*73
$GPGSV,3,3,10,26,07,336,,28,16,077,26*74
$GPGLL,2730.04517,S,15300.93582,E,055547.00,A,A*71
$GPRMC,055548.00,A,2730.04515,S,15300.93584,E,0.070,,101214,,,A*63
$GPVTG,,T,,M,0.070,N,0.130,K,A*26
$GPGGA,055548.00,2730.04515,S,15300.93584,E,1,07,1.17,5.9,M,38.5,M,,*4D
$GPGSA,A,3,06,02,17,24,12,28,10,,,,,,2.10,1.17,1.74*08
$GPGSV,3,1,10,02,54,348,33,06,69,096,40,10,15,050,29,12,24,224,34*79
$GPGSV,3,2,10,15,08,298,,17,27,135,36,20,00,131,,24,46,240,40*70
$GPGSV,3,3,10,26,07,336,,28,16,077,27*75
$GPGLL,2730.04515,S,15300.93584,E,055548.00,A,A*7A
$GPRMC,055549.00,A,2730.04512,S,15300.93586,E,0.067,,101214,,,A*61
$GPVTG,,T,,M,0.067,N,0.124,K,A*25
$GPGGA,055549.00,2730.04512,S,15300.93586,E,1,07,1.17,5.8,M,38.5,M,,*48
$GPGSA,A,3,06,02,17,24,12,28,10,,,,,,2.10,1.17,1.74*08
$GPGSV,3,1,10,02,54,348,33,06,69,096,40,10,15,050,29,12,24,224,37*7A
$GPGSV,3,2,10,15,08,298,,17,27,135,36,20,00,131,,24,46,240,39*7E
$GPGSV,3,3,10,26,07,336,,28,16,077,27*75
$GPGLL,2730.04512,S,15300.93586,E,055549.00,A,A*7E
$GPRMC,055550.00,A,2730.04511,S,15300.93587,E,0.047,,101214,,,A*69
$GPVTG,,T,,M,0.047,N,0.087,K,A*2F
$GPGGA,055550.00,2730.04511,S,15300.93587,E,1,07,1.17,5.9,M,38.5,M,,*43
$GPGSA,A,3,06,02,17,24,12,28,10,,,,,,2.10,1.17,1.74*08
$GPGSV,3,1,10,02,54,348,32,06,69,096,40,10,15,050,29,12,24,224,37*7B
$GPGSV,3,2,10,15,08,298,,17,27,135,36,20,00,131,,24,46,240,39*7E
$GPGSV,3,3,10,26,07,336,,28,16,077,28*7A
$GPGLL,2730.04511,S,15300.93587,E,055550.00,A,A*74
$GPRMC,055551.00,A,2730.04514,S,15300.93588,E,0.082,,101214,,,A*6B
$GPVTG,,T,,M,0.082,N,0.153,K,A*2E
$GPGGA,055551.00,2730.04514,S,15300.93588,E,1,07,1.17,6.0,M,38.5,M,,*42
$GPGSA,A,3,06,02,17,24,12,28,10,,,,,,2.10,1.17,1.74*08
$GPGSV,3,1,10,02,54,348,33,06,69,096,40,10,15,050,29,12,24,224,37*7A
$GPGSV,3,2,10,15,08,298,,17,27,135,35,20,00,131,,24,46,240,39*7D
$GPGSV,3,3,10,26,07,336,,28,16,077,28*7A
$GPGLL,2730.04514,S,15300.93588,E,055551.00,A,A*7F
$GPRMC,055552.00,A,2730.04515,S,15300.93588,E,0.056,,101214,,,A*60
$GPVTG,,T,,M,0.056,N,0.104,K,A*25
$GPGGA,055552.00,2730.04515,S,15300.93588,E,1,07,1.17,6.1,M,38.5,M,,*41
$GPGSA,A,3,06,02,17,24,12,28,10,,,,,,2.10,1.17,1.74*08
$GPGSV,3,1,10,02,54,348,33,06,69,096,41,10,15,050,29,12,24,224,36*7A
$GPGSV,3,2,10,15,08,298,,17,27,135,35,20,00,131,,24,46,240,39*7D
$GPGSV,3,3,10,26,07,336,,28,16,077,28*7A
$GPGLL,2730.04515,S,15300.93588,E,055552.00,A,A*7D
$GPRMC,055553.00,A,2730.04516,S,15300.93589,E,0.009,,101214,,,A*69
$GPVTG,,T,,M,0.009,N,0.017,K,A*2C
$GPGGA,055553.00,2730.04516,S,15300.93589,E,1,07,1.17,6.2,M,38.5,M,,*41
$GPGSA,A,3,06,02,17,24,12,28,10,,,,,,2.10,1.17,1.74*08
$GPGSV,3,1,10,02,54,348,34,06,69,096,40,10,15,050,29,12,24,224,34*7E
$GPGSV,3,2,10,15,08,298,,17,27,135,35,20,00,131,,24,46,240,39*7D
$GPGSV,3,3,10,26,07,336,,28,16,077,29*7B
$GPGLL,2730.04516,S,15300.93589,E,055553.00,A,A*7E
$GPRMC,055554.00,A,2730.04516,S,15300.93589,E,0.049,,101214,,,A*6A
$GPVTG,,T,,M,0.049,N,0.091,K,A*26
$GPGGA,055554.00,2730.04516,S,15300.93589,E,1,07,1.17,6.2,M,38.5,M,,*46
$GPGSA,A,3,06,02,17,24,12,28,10,,,,,,2.10,1.17,1.74*08
$GPGSV,3,1,10,02,54,348,35,06,69,096,42,10,15,050,29,12,24,224,37*7E
$GPGSV,3,2,10,15,08,298,,17,27,135,34,20,00,131,,24,46,240,41*73
$GPGSV,3,3,10,26,07,336,,28,16,077,30*73
$GPGLL,2730.04516,S,15300.93589,E,055554.00,A,A*79
$GPRMC,055555.00,A,2730.04515,S,15300.93589,E,0.032,,101214,,,A*64
$GPVTG,,T,,M,0.032,N,0.058,K,A*2F
$GPGGA,055555.00,2730.04515,S,15300.93589,E,1,07,1.17,6.2,M,38.5,M,,*44
$GPGSA,A,3,06,02,17,24,12,28,10,,,,,,2.10,1.17,1.74*08
$GPGSV,3,1,10,02,54,348,36,06,69,096,40,10,15,050,29,12,24,224,36*7E
$GPGSV,3,2,10,15,08,298,,17,27,135,34,20,00,131,,24,46,240,40*72
$GPGSV,3,3,10,26,07,336,,28,16,077,29*7B
$GPGLL,2730.04515,S,15300.93589,E,055555.00,A,A*7B
$GPRMC,055556.00,A,2730.04515,S,15300.93591,E,0.027,,101214,,,A*6A
$GPVTG,,T,,M,0.027,N,0.049,K,A*2B
$GPGGA,055556.00,2730.04515,S,15300.93591,E,1,07,1.17,6.2,M,38.5,M,,*4E
$GPGSA,A,3,06,02,17,24,12,28,10,,,,,,2.10,1.17,1.74*08
$GPGSV,3,1,10,02,54,348,35,06,69,096,40,10,15,050,29,12,24,224,37*7C
$GPGSV,3,2,10,15,08,298,,17,27,135,35,20,00,131,,24,46,240,39*7D
$GPGSV,3,3,10,26,07,336,,28,16,077,28*7A
$GPGLL,2730.04515,S,15300.93591,E,055556.00,A,A*71
$GPRMC,055557.00,A,2730.04513,S,15300.93593,E,0.094,,101214,,,A*67
$GPVTG,,T,,M,0.094,N,0.173,K,A*2B
$GPGGA,055557.00,2730.04513,S,15300.93593,E,1,07,1.17,6.2,M,38.5,M,,*4B
$GPGSA,A,3,06,02,17,24,12,28,10,,,,,,2.10,1.17,1.74*08
$GPGSV,3,1,10,02,54,348,34,06,69,096,40,10,15,050,29,12,24,224,37*7D
$GPGSV,3,2,10,15,08,298,,17,27,135,34,20,00,131,,24,46,240,39*7C
$GPGSV,3,3,10,26,07,336,,28,16,077,29*7B
$GPGLL,2730.04513,S,15300.93593,E,055557.00,A,A*74
$GPRMC,055558.00,A,2730.04516,S,15300.93596,E,0.042,,101214,,,A*63
$GPVTG,,T,,M,0.042,N,0.077,K,A*25
$GPGGA,055558.00,2730.04516,S,15300.93596,E,1,07,1.17,6.2,M,38.5,M,,*44
$GPGSA,A,3,06,02,17,24,12,28,10,,,,,,2.10,1.17,1.74*08
$GPGSV,3,1,10,02,54,348,33,06,69,096,39,10,15,050,30,12,24,224,38*73
$GPGSV,3,2,10,15,08,298,,17,27,135,35,20,00,131,,24,46,240,39*7D
$GPGSV,3,3,10,26,07,336,,28,16,077,29*7B
$GPGLL,2730.04516,S,15300.93596,E,055558.00,A,A*7B
$GPRMC,055559.00,A,2730.04518,S,15300.93600,E,0.067,,101214,,,A*67
$GPVTG,,T,,M,0.067,N,0.123,K,A*22
$GPGGA,055559.00,2730.04518,S,15300.93600,E,1,07,1.17,6.3,M,38.5,M,,*46
$GPGSA,A,3,06,02,17,24,12,28,10,,,,,,2.10,1.17,1.74*08
$GPGSV,3,1,10,02,54,348,35,06,69,096,40,10,15,050,30,12,24,224,38*7B
$GPGSV,3,2,10,15,08,298,,17,27,135,35,20,00,131,,24,46,240,39*7D
$GPGSV,3,3,10,26,07,336,,28,16,077,30*73
$GPGLL,2730.04518,S,15300.93600,E,055559.00,A,A*78
$GPRMC,055600.00,A,2730.04525,S,15300.93600,E,0.039,,101214,,,A*6D
$GPVTG,,T,,M,0.039,N,0.073,K,A*2D
$GPGGA,055600.00,2730.04525,S,15300.93600,E,1,07,1.17,6.6,M,38.5,M,,*42
$GPGSA,A,3,06,02,17,24,12,28,10,,,,,,2.10,1.17,1.74*08
$GPGSV,3,1,10,02,54,348,35,06,69,096,40,10,15,050,30,12,24,224,38*7B
$GPGSV,3,2,10,15,08,298,,17,27,135,36,20,00,131,,24,46,240,39*7E
$GPGSV,3,3,10,26,07,336,,28,16,077,30*73
$GPGLL,2730.04525,S,15300.93600,E,055600.00,A,A*79
$GPRMC,055601.00,A,2730.04531,S,15300.93603,E,0.011,,101214,,,A*60
$GPVTG,,T,,M,0.011,N,0.020,K,A*21
$GPGGA,055601.00,2730.04531,S,15300.93603,E,1,07,1.18,6.8,M,38.5,M,,*44
$GPGSA,A,3,06,02,17,24,12,28,10,,,,,,2.10,1.18,1.74*07
$GPGSV,3,1,10,02,54,348,36,06,69,098,40,10,15,050,30,12,24,224,37*79
$GPGSV,3,2,10,15,08,298,,17,27,135,35,20,00,131,,24,46,240,39*7D
$GPGSV,3,3,10,26,07,336,,28,16,077,31*72
$GPGLL,2730.04531,S,15300.93603,E,055601.00,A,A*7E
$GPRMC,055602.00,A,2730.04535,S,15300.93606,E,0.036,,101214,,,A*67
$GPVTG,,T,,M,0.036,N,0.066,K,A*26
$GPGGA,055602.00,2730.04535,S,15300.93606,E,1,07,1.18,6.9,M,38.5,M,,*47
$GPGSA,A,3,06,02,17,24,12,28,10,,,,,,2.10,1.18,1.74*07
$GPGSV,3,1,10,02,54,348,36,06,69,098,40,10,15,050,28,12,24,224,37*70
$GPGSV,3,2,10,15,08,298,19,17,27,135,36,20,00,131,,24,46,240,39*76
$GPGSV,3,3,10,26,07,336,,28,16,077,30*73
$GPGLL,2730.04535,S,15300.93606,E,055602.00,A,A*7C
$GPRMC,055603.00,A,2730.04537,S,15300.93606,E,0.077,,101214,,,A*61
$GPVTG,,T,,M,0.077,N,0.142,K,A*24
$GPGGA,055603.00,2730.04537,S,15300.93606,E,1,07,1.18,7.0,M,38.5,M,,*4C
$GPGSA,A,3,06,02,17,24,12,28,10,,,,,,2.10,1.18,1.74*07
$GPGSV,3,1,10,02,54,348,36,06,69,098,41,10,15,050,29,12,24,224,36*71
$GPGSV,3,2,10,15,08,298,18,17,27,135,37,20,00,131,,24,46,240,38*77
$GPGSV,3,3,10,26,07,336,,28,16,077,31*72
$GPGLL,2730.04537,S,15300.93606,E,055603.00,A,A*7F
$GPRMC,055604.00,A,2730.04538,S,15300.93605,E,0.047,,101214,,,A*69
$GPVTG,,T,,M,0.047,N,0.087,K,A*2F
$GPGGA,055604.00,2730.04538,S,15300.93605,E,1,07,1.18,7.0,M,38.5,M,,*47
$GPGSA,A,3,06,02,17,24,12,28,10,,,,,,2.10,1.18,1.74*07
$GPGSV,3,1,10,02,54,348,35,06,69,098,40,10,15,050,28,12,24,224,37*73
$GPGSV,3,2,10,15,08,298,16,17,27,135,37,20,00,131,,24,46,240,39*78
$GPGSV,3,3,10,26,07,336,,28,16,077,32*71
$GPGLL,2730.04538,S,15300.93605,E,055604.00,A,A*74
$GPRMC,055605.00,A,2730.04541,S,15300.93605,E,0.052,,101214,,,A*62
$GPVTG,,T,,M,0.052,N,0.095,K,A*28
$GPGGA,055605.00,2730.04541,S,15300.93605,E,1,07,1.18,7.1,M,38.5,M,,*49
$GPGSA,A,3,06,02,17,24,12,28,10,,,,,,2.10,1.18,1.74*07
$GPGSV,3,1,10,02,54,348,34,06,69,098,40,10,15,051,27,12,24,224,36*7D
$GPGSV,3,2,10,15,08,298,14,17,27,135,36,20,00,131,,24,46,240,39*7B
$GPGSV,3,3,10,26,07,336,,28,16,077,32*71
$GPGLL,2730.04541,S,15300.93605,E,055605.00,A,A*7B
$GPRMC,055606.00,A,2730.04545,S,15300.93605,E,0.029,,101214,,,A*69
$GPVTG,,T,,M,0.029,N,0.054,K,A*29
$GPGGA,055606.00,2730.04545,S,15300.93605,E,1,07,1.18,7.2,M,38.5,M,,*4D
$GPGSA,A,3,06,02,17,24,12,28,10,,,,,,2.10,1.18,1.74*07
$GPGSV,3,1,10,02,54,348,34,06,69,098,39,10,15,051,28,12,24,224,35*7F
$GPGSV,3,2,10,15,08,298,13,17,27,135,37,20,00,131,,24,46,240,39*7D
$GPGSV,3,3,10,26,07,336,,28,16,077,31*72
$GPGLL,2730.04545,S,15300.93605,E,055606.00,A,A*7C
$GPRMC,055607.00,A,2730.04551,S,15300.93605,E,0.086,,101214,,,A*68
$GPVTG,,T,,M,0.086,N,0.160,K,A*2A
$GPGGA,055607.00,2730.04551,S,15300.93605,E,1,07,1.18,7.4,M,38.5,M,,*4F
$GPGSA,A,3,06,02,17,24,12,28,10,,,,,,2.10,1.18,1.74*07
$GPGSV,3,1,10,02,54,348,33,06,69,098,39,10,15,051,28,12,25,223,35*7E
$GPGSV,3,2,10,15,08,298,13,17,27,135,37,20,00,131,,24,46,240,38*7C
$GPGSV,3,3,10,26,07,336,,28,16,077,31*72
$GPGLL,2730.04551,S,15300.93605,E,055607.00,A,A*78
$GPRMC,055608.00,A,2730.04556,S,15300.93605,E,0.076,,101214,,,A*6F
$GPVTG,,T,,M,0.076,N,0.142,K,A*25
$GPGGA,055608.00,2730.04556,S,15300.93605,E,1,07,1.18,7.5,M,38.5,M,,*46
$GPGSA,A,3,06,02,17,24,12,28,10,,,,,,2.10,1.18,1.74*07
$GPGSV,3,1,10,02,54,348,34,06,69,098,40,10,15,051,26,12,25,223,35*79
$GPGSV,3,2,10,15,08,298,13,17,27,135,36,20,00,131,,24,46,240,39*7C
$GPGSV,3,3,10,26,07,336,,28,16,077,30*73
$GPGLL,2730.04556,S,15300.93605,E,055608.00,A,A*70
$GPRMC,055609.00,A,2730.04559,S,15300.93604,E,0.016,,101214,,,A*66
$GPVTG,,T,,M,0.016,N,0.029,K,A*2F
$GPGGA,055609.00,2730.04559,S,15300.93604,E,1,07,1.18,7.6,M,38.5,M,,*4A
$GPGSA,A,3,06,02,17,24,12,28,10,,,,,,2.10,1.18,1.74*07
$GPGSV,3,1,10,02,54,348,33,06,69,098,39,10,15,051,27,12,25,223,36*72
$GPGSV,3,2,10,15,08,298,10,17,27,135,37,20,00,131,,24,46,240,39*7E
$GPGSV,3,3,10,26,07,336,,28,16,077,29*7B
$GPGLL,2730.04559,S,15300.93604,E,055609.00,A,A*7F
$GPRMC,055610.00,A,2730.04562,S,15300.93603,E,0.025,,101214,,,A*61
$GPVTG,,T,,M,0.025,N,0.046,K,A*26
$GPGGA,055610.00,2730.04562,S,15300.93603,E,1,07,1.18,7.7,M,38.5,M,,*4C
$GPGSA,A,3,06,02,17,24,12,28,10,,,,,,2.10,1.18,1.74*07
$GPGSV,3,1,10,02,54,348,33,06,69,098,40,10,15,051,32,12,25,223,36*78
$GPGSV,3,2,10,15,08,298,09,17,27,135,36,20,00,131,,24,46,240,39*77
$GPGSV,3,3,10,26,07,336,,28,16,077,28*7A
$GPGLL,2730.04562,S,15300.93603,E,055610.00,A,A*78
$GPRMC,055611.00,A,2730.04564,S,15300.93601,E,0.005,,101214,,,A*66
$GPVTG,,T,,M,0.005,N,0.010,K,A*27
$GPGGA,055611.00,2730.04564,S,15300.93601,E,1,07,1.18,7.8,M,38.5,M,,*46
$GPGSA,A,3,06,02,17,24,12,28,10,,,,,,2.10,1.18,1.74*07
$GPGSV,3,1,10,02,54,348,34,06,69,098,41,10,15,051,31,12,25,223,38*73
$GPGSV,3,2,10,15,08,298,08,17,27,135,36,20,00,131,,24,46,240,37*78
$GPGSV,3,3,10,26,07,336,,28,16,077,28*7A
$GPGLL,2730.04564,S,15300.93601,E,055611.00,A,A*7D
$GPRMC,055612.00,A,2730.04566,S,15300.93600,E,0.019,,101214,,,A*6B
$GPVTG,,T,,M,0.019,N,0.034,K,A*2C
$GPGGA,055612.00,2730.04566,S,15300.93600,E,1,07,1.18,8.0,M,38.5,M,,*41
$GPGSA,A,3,06,02,17,24,12,28,10,,,,,,2.10,1.18,1.74*07
$GPGSV,3,1,10,02,54,348,32,06,69,098,41,10,15,051,31,12,25,223,36*7B
$GPGSV,3,2,10,15,08,298,08,17,27,135,36,20,00,131,,24,46,240,38*77
$GPGSV,3,3,10,26,07,336,,28,16,077,27*75
$GPGLL,2730.04566,S,15300.93600,E,055612.00,A,A*7D
$GPRMC,055613.00,A,2730.04564,S,15300.93598,E,0.004,,101214,,,A*66
$GPVTG,,T,,M,0.004,N,0.007,K,A*20
$GPGGA,055613.00,2730.04564,S,15300.93598,E,1,07,1.18,8.0,M,38.5,M,,*40
$GPGSA,A,3,06,02,17,24,12,28,10,,,,,,2.10,1.18,1.74*07
$GPGSV,3,1,10,02,54,348,33,06,69,098,41,10,15,051,31,12,25,223,37*7B
$GPGSV,3,2,10,15,08,298,08,17,27,135,36,20,00,131,,24,46,240,38*77
$GPGSV,3,3,10,26,07,336,,28,16,077,27*75
$GPGLL,2730.04564,S,15300.93598,E,055613.00,A,A*7C
$GPRMC,055614.00,A,2730.04564,S,15300.93596,E,0.040,,101214,,,A*6F
$GPVTG,,T,,M,0.040,N,0.075,K,A*25
$GPGGA,055614.00,2730.04564,S,15300.93596,E,1,07,1.18,8.0,M,38.5,M,,*49
$GPGSA,A,3,06,02,17,24,12,28,10,,,,,,2.10,1.18,1.74*07
$GPGSV,3,1,10,02,54,348,33,06,69,098,40,10,15,051,31,12,25,223,37*7A
$GPGSV,3,2,10,15,08,298,08,17,27,135,36,20,00,131,,24,46,240,38*77
$GPGSV,3,3,10,26,07,336,,28,16,077,28*7A
$GPGLL,2730.04564,S,15300.93596,E,055614.00,A,A*75
$GPRMC,055615.00,A,2730.04566,S,15300.93594,E,0.023,,101214,,,A*6B
$GPVTG,,T,,M,0.023,N,0.043,K,A*25
$GPGGA,055615.00,2730.04566,S,15300.93594,E,1,07,1.18,8.2,M,38.5,M,,*4A
$GPGSA,A,3,06,02,17,24,12,28,10,,,,,,2.10,1.18,1.74*07
$GPGSV,3,1,10,02,54,348,34,06,69,098,40,10,15,051,31,12,25,223,36*7C
$GPGSV,3,2,10,15,08,298,08,17,27,135,36,20,00,132,,24,46,240,38*74
$GPGSV,3,3,10,26,07,336,,28,16,077,28*7A
$GPGLL,2730.04566,S,15300.93594,E,055615.00,A,A*74
$GPRMC,055616.00,A,2730.04567,S,15300.93591,E,0.002,,101214,,,A*6F
$GPVTG,,T,,M,0.002,N,0.003,K,A*22
$GPGGA,055616.00,2730.04567,S,15300.93591,E,1,07,1.18,8.3,M,38.5,M,,*4C
$GPGSA,A,3,06,02,17,24,12,28,10,,,,,,2.10,1.18,1.74*07
$GPGSV,3,1,10,02,54,348,34,06,69,098,40,10,15,051,32,12,25,223,37*7E
$GPGSV,3,2,10,15,08,298,07,17,27,135,36,20,00,132,,24,46,240,38*7B
$GPGSV,3,3,10,26,07,336,,28,16,077,29*7B
$GPGLL,2730.04567,S,15300.93591,E,055616.00,A,A*73
$GPRMC,055617.00,A,2730.04568,S,15300.93589,E,0.027,,101214,,,A*6F
$GPVTG,,T,,M,0.027,N,0.050,K,A*23
$GPGGA,055617.00,2730.04568,S,15300.93589,E,1,07,1.18,8.3,M,38.5,M,,*4B
$GPGSA,A,3,06,02,17,24,12,28,10,,,,,,2.10,1.18,1.74*07
$GPGSV,3,1,10,02,54,348,35,06,69,098,41,10,15,051,32,12,25,223,36*7F
$GPGSV,3,2,10,15,08,298,07,17,27,135,36,20,00,132,,24,46,240,37*74
$GPGSV,3,3,10,26,07,336,,28,16,077,28*7A
$GPGLL,2730.04568,S,15300.93589,E,055617.00,A,A*74
$GPRMC,055618.00,A,2730.04569,S,15300.93587,E,0.026,,101214,,,A*6E
$GPVTG,,T,,M,0.026,N,0.049,K,A*2A
$GPGGA,055618.00,2730.04569,S,15300.93587,E,1,07,1.18,8.4,M,38.5,M,,*4C
$GPGSA,A,3,06,02,17,24,12,28,10,,,,,,2.10,1.18,1.74*07
$GPGSV,3,1,10,02,54,348,35,06,69,098,41,10,15,051,32,12,25,223,36*7F
$GPGSV,3,2,10,15,08,298,07,17,27,135,37,20,00,132,,24,46,240,37*75
$GPGSV,3,3,10,26,07,336,,28,16,077,28*7A
$GPGLL,2730.04569,S,15300.93587,E,055618.00,A,A*74
$GPRMC,055619.00,A,2730.04569,S,15300.93584,E,0.026,,101214,,,A*6C
$GPVTG,,T,,M,0.026,N,0.047,K,A*24
$GPGGA,055619.00,2730.04569,S,15300.93584,E,1,07,1.18,8.4,M,38.5,M,,*4E
$GPGSA,A,3,06,02,17,24,12,28,10,,,,,,2.10,1.18,1.74*07
$GPGSV,3,1,10,02,54,348,35,06,69,098,40,10,15,051,32,12,25,223,37*7F
$GPGSV,3,2,10,15,08,298,07,17,27,135,37,20,00,132,,24,47,241,38*7A
$GPGSV,3,3,10,26,07,336,,28,16,077,27*75
$GPGLL,2730.04569,S,15300.93584,E,055619.00,A,A*76
$GPRMC,055620.00,A,2730.04570,S,15300.93581,E,0.040,,101214,,,A*6B
$GPVTG,,T,,M,0.040,N,0.074,K,A*24
$GPGGA,055620.00,2730.04570,S,15300.93581,E,1,07,1.18,8.5,M,38.5,M,,*48
$GPGSA,A,3,06,02,17,24,12,28,10,,,,,,2.10,1.18,1.74*07
$GPGSV,3,1,10,02,54,348,34,06,69,098,40,10,15,051,31,12,25,223,36*7C
$GPGSV,3,2,10,15,08,298,07,17,27,135,37,20,00,132,,24,47,241,38*7A
$GPGSV,3,3,10,26,07,336,,28,16,077,28*7A
$GPGLL,2730.04570,S,15300.93581,E,055620.00,A,A*71
$GPRMC,055621.00,A,2730.04570,S,15300.93579,E,0.020,,101214,,,A*6B
$GPVTG,,T,,M,0.020,N,0.037,K,A*25
$GPGGA,055621.00,2730.04570,S,15300.93579,E,1,07,1.18,8.5,M,38.5,M,,*4E
$GPGSA,A,3,06,02,17,24,12,28,10,,,,,,2.10,1.18,1.74*07
$GPGSV,3,1,10,02,54,348,35,06,69,098,40,10,15,051,31,12,25,223,37*7C
$GPGSV,3,2,10,15,08,298,,17,27,135,36,20,00,132,,24,47,241,38*7C
$GPGSV,3,3,10,26,07,336,,28,16,077,30*73
$GPGLL,2730.04570,S,15300.93579,E,055621.00,A,A*77
$GPRMC,055622.00,A,2730.04570,S,15300.93577,E,0.053,,101214,,,A*62
$GPVTG,,T,,M,0.053,N,0.098,K,A*24
$GPGGA,055622.00,2730.04570,S,15300.93577,E,1,07,1.18,8.5,M,38.5,M,,*43
$GPGSA,A,3,06,02,17,24,12,28,10,,,,,,2.10,1.18,1.74*07
$GPGSV,3,1,10,02,54,348,35,06,69,098,40,10,15,051,30,12,25,223,36*7C
$GPGSV,3,2,10,15,08,298,,17,27,135,38,20,00,132,,24,47,241,37*7D
$GPGSV,3,3,10,26,07,336,,28,16,077,30*73
$GPGLL,2730.04570,S,15300.93577,E,055622.00,A,A*7A
$GPRMC,055623.00,A,2730.04569,S,15300.93575,E,0.029,,101214,,,A*64
$GPVTG,,T,,M,0.029,N,0.053,K,A*2E
$GPGGA,055623.00,2730.04569,S,15300.93575,E,1,07,1.18,8.4,M,38.5,M,,*49
$GPGSA,A,3,06,02,17,24,12,28,10,,,,,,2.10,1.18,1.74*07
$GPGSV,3,1,10,02,54,348,35,06,69,098,41,10,15,051,30,12,25,223,36*7D
$GPGSV,3,2,10,15,08,298,,17,27,135,37,20,00,132,,24,47,241,38*7D
$GPGSV,3,3,10,26,07,336,,28,16,076,29*7A
$GPGLL,2730.04569,S,15300.93575,E,055623.00,A,A*71
$GPRMC,055624.00,A,2730.04566,S,15300.93572,E,0.056,,101214,,,A*63
$GPVTG,,T,,M,0.056,N,0.103,K,A*22
$GPGGA,055624.00,2730.04566,S,15300.93572,E,1,07,1.18,8.3,M,38.5,M,,*41
$GPGSA,A,3,06,02,17,24,12,28,10,,,,,,2.10,1.18,1.74*07
$GPGSV,3,1,10,02,54,348,34,06,69,098,41,10,15,051,29,12,25,223,36*74
$GPGSV,3,2,10,15,08,298,,17,27,135,37,20,00,132,,24,47,241,38*7D
$GPGSV,3,3,10,26,07,336,,28,16,076,29*7A
$GPGLL,2730.04566,S,15300.93572,E,055624.00,A,A*7E
$GPRMC,055625.00,A,2730.04564,S,15300.93570,E,0.040,,101214,,,A*65
$GPVTG,,T,,M,0.040,N,0.073,K,A*23
$GPGGA,055625.00,2730.04564,S,15300.93570,E,1,07,1.18,8.2,M,38.5,M,,*41
$GPGSA,A,3,06,02,17,24,12,28,10,,,,,,2.10,1.18,1.74*07
$GPGSV,3,1,10,02,54,348,34,06,69,098,41,10,15,051,29,12,25,223,36*74
$GPGSV,3,2,10,15,08,298,,17,27,135,37,20,00,132,,24,47,241,37*72
$GPGSV,3,3,10,26,07,336,,28,16,076,30*72
$GPGLL,2730.04564,S,15300.93570,E,055625.00,A,A*7F
$GPRMC,055626.00,A,2730.04563,S,15300.93568,E,0.052,,101214,,,A*6B
$GPVTG,,T,,M,0.052,N,0.097,K,A*2A
$GPGGA,055626.00,2730.04563,S,15300.93568,E,1,07,1.18,8.1,M,38.5,M,,*4F
$GPGSA,A,3,06,02,17,24,12,28,10,,,,,,2.10,1.18,1.74*07
$GPGSV,3,1,10,02,54,348,35,06,69,098,41,10,15,051,27,12,25,223,36*7B
$GPGSV,3,2,10,15,08,298,,17,27,135,37,20,00,132,,24,47,241,36*73
$GPGSV,3,3,10,26,07,336,,28,16,076,30*72
$GPGLL,2730.04563,S,15300.93568,E,055626.00,A,A*72
$GPRMC,055627.00,A,2730.04560,S,15300.93566,E,0.061,,101214,,,A*67
$GPVTG,,T,,M,0.061,N,0.113,K,A*27
$GPGGA,055627.00,2730.04560,S,15300.93566,E,1,07,1.18,8.0,M,38.5,M,,*42
$GPGSA,A,3,06,02,17,24,12,28,10,,,,,,2.10,1.18,1.74*07
$GPGSV,3,1,10,02,54,348,34,06,69,098,41,10,15,051,27,12,25,223,38*74
$GPGSV,3,2,10,15,08,298,,17,27,135,38,20,00,132,,24,47,241,38*72
$GPGSV,3,3,10,26,07,336,,28,16,076,29*7A
$GPGLL,2730.04560,S,15300.93566,E,055627.00,A,A*7E
$GPRMC,055628.00,A,2730.04557,S,15300.93565,E,0.062,,101214,,,A*6C
$GPVTG,,T,,M,0.062,N,0.116,K,A*21
$GPGGA,055628.00,2730.04557,S,15300.93565,E,1,07,1.18,7.9,M,38.5,M,,*4C
$GPGSA,A,3,06,02,17,24,12,28,10,,,,,,2.10,1.18,1.74*07
$GPGSV,3,1,10,02,54,348,33,06,69,098,41,10,15,051,27,12,25,223,38*73
